,lat,lon,timestamp,amenity,name,tags
1,49.260953,-123.125704,2019-08-02T18:11:20.000-07:00,fast_food,Salad Loop,{'opening_hours': 'Mo-Fr 07:00-17:00; Sa 10:00-14:30'}
67,49.2347493,-123.1547249,2019-09-24T19:58:50.000-07:00,fast_food,McDonald's,"{'brand:wikidata': 'Q38076', 'wheelchair': 'yes', 'addr:housenumber': '2095', 'website': 'http://www.mcdonalds.ca/', 'internet_access': 'wlan', 'brand:wikipedia': ""en:McDonald's"", 'opening_hours': '24/7', 'cuisine': 'burger', 'addr:street': 'West 41st Avenue', 'takeaway': 'yes', 'brand': ""McDonald's""}"
84,49.1401463,-123.1378853,2014-08-23T05:24:32.000-07:00,fast_food,Subway,{'cuisine': 'sub'}
88,49.1398614,-123.137394,2019-02-27T00:17:55.000-08:00,fast_food,KFC,"{'brand:wikidata': 'Q524757', 'cuisine': 'chicken', 'brand': 'KFC', 'brand:wikipedia': 'en:KFC', 'drive_through': 'no'}"
89,49.1486188,-123.1358921,2009-09-01T22:49:26.000-07:00,fast_food,Pizza Hut (takeout),{}
90,49.1330851,-123.0940869,2019-08-24T15:12:34.000-07:00,fast_food,McDonald's,"{'brand:wikidata': 'Q38076', 'website': 'http://www.mcdonalds.ca/', 'internet_access': 'wlan', 'brand:wikipedia': ""en:McDonald's"", 'drive_through': 'yes', 'opening_hours': '24/7', 'cuisine': 'burger', 'takeaway': 'yes', 'brand': ""McDonald's""}"
91,49.1329977,-123.0973124,2019-08-24T15:12:34.000-07:00,fast_food,Burger King,"{'brand:wikidata': 'Q177054', 'cuisine': 'burger', 'takeaway': 'yes', 'brand': 'Burger King', 'brand:wikipedia': 'en:Burger King'}"
95,49.091207,-122.9564485,2010-06-11T04:53:29.000-07:00,fast_food,Triple O's,{}
320,49.2427149,-123.004048,2019-07-07T04:11:10.000-07:00,fast_food,Subway,"{'brand:wikidata': 'Q244457', 'cuisine': 'sandwich', 'takeaway': 'yes', 'brand': 'Subway', 'brand:wikipedia': 'en:Subway (restaurant)'}"
331,49.2866244,-123.1282577,2020-01-06T05:53:27.000-08:00,fast_food,Chongqing on Robson,"{'addr:housenumber': '1260', 'website': 'https://chong-qing-restaurant-online-ordering.securebrygid.com', 'phone': '+1-604-568-0303', 'opening_hours': 'Mo-Su 11:30-22:00', 'cuisine': 'chinese', 'addr:street': 'Robson Street', 'addr:postcode': 'V6E 1C1', 'addr:city': 'Vancouver'}"
333,49.2867409,-123.1284213,2016-07-27T14:52:31.000-07:00,fast_food,A Taste of India,"{'cuisine': 'indian', 'addr:housenumber': '1282', 'addr:street': 'Robson Street'}"
341,49.2865615,-123.1281828,2016-07-27T18:08:36.000-07:00,fast_food,Pok'e Time,"{'cuisine': 'japanese', 'addr:housenumber': '1258', 'addr:street': 'Robson Street'}"
405,49.2657244,-123.2430971,2019-04-19T23:12:46.000-07:00,fast_food,Red Burrito,{'cuisine': 'mexican'}
406,49.2661113,-123.2420861,2019-05-29T17:24:51.000-07:00,fast_food,Pita Pit,"{'brand:wikidata': 'Q7757289', 'cuisine': 'pita', 'takeaway': 'yes', 'brand': 'Pita Pit', 'brand:wikipedia': 'en:Pita Pit'}"
414,49.0558043,-122.2722298,2019-09-02T22:08:26.000-07:00,fast_food,Subway,"{'opening_hours': 'Mo-Fr 07:00-22:00; Sa-Su 08:00-22:00', 'cuisine': 'sandwich', 'website': 'http://subway.ca', 'ref': 'Store #67123', 'phone': '+1-604-776-1122'}"
417,49.13295,-122.5818856,2019-05-27T10:58:25.000-07:00,fast_food,Triple O's,"{'cuisine': 'burger', 'addr:housenumber': '23182', 'addr:street': '232 Street'}"
629,49.2842686,-123.1197597,2018-02-10T15:24:53.000-08:00,fast_food,Smokehouse Sandwich Co,"{'opening_hours': 'Mo-Fr 07:00-15:00', 'cuisine': 'sandwich', 'website': 'http://www.smokehousesandwich.ca', 'phone': '+1-604-620-0766'}"
660,49.2860548,-123.1251718,2019-08-28T07:25:01.000-07:00,fast_food,A&W,"{'addr:housenumber': '1158', 'addr:street': 'Alberni Street'}"
661,49.2860886,-123.1252316,2019-08-28T07:25:01.000-07:00,fast_food,Subway,"{'brand:wikidata': 'Q244457', 'addr:housenumber': '1162', 'brand:wikipedia': 'en:Subway (restaurant)', 'cuisine': 'sandwich', 'addr:street': 'Alberni Street', 'takeaway': 'yes', 'brand': 'Subway'}"
702,49.2633356,-123.1144174,2019-09-13T13:56:49.000-07:00,fast_food,A&W,"{'addr:housenumber': '467', 'opening_hours': 'Mo-Su 00:00-24:00', 'cuisine': 'burger', 'outdoor_seating': 'no', 'addr:street': 'West Broadway', 'addr:postcode': 'V5Y 1R4', 'addr:city': 'Vancouver'}"
708,49.3810218,-123.0791455,2015-11-14T18:34:31.000-08:00,fast_food,Beaver Tails,"{'cuisine': 'pastry', 'smoking': 'no'}"
716,49.0523043,-122.3227371,2018-06-20T15:12:28.000-07:00,fast_food,Lully's Sandwich Bar,"{'alt_name': ""Lully's Mobile Food Experience"", 'website': 'https://m.facebook.com/Lullys-Mobile-Food-Experience-869975846380585', 'phone': '+1-250-384-0403', 'description': 'Montreal Old Fashioned Smoked Meat', 'cuisine': 'sandwich', 'url': 'http://lullys.ca'}"
745,49.2501163,-122.8923026,2019-09-23T20:19:36.000-07:00,fast_food,McDonald's,"{'brand:wikidata': 'Q38076', 'internet_access': 'wlan', 'brand:wikipedia': ""en:McDonald's"", 'opening_hours': '24/7', 'cuisine': 'burger', 'addr:street': 'North Road', 'takeaway': 'yes', 'brand': ""McDonald's""}"
747,49.1742656,-122.6668885,2016-10-24T00:20:02.000-07:00,fast_food,Triple-O's,"{'name:en': ""Triple-O's""}"
759,49.2262222,-123.1287693,2016-10-24T06:57:21.000-07:00,fast_food,Tim Hortons,{'name:en': 'Tim Hortons'}
784,49.2037589,-122.9046452,2019-05-11T06:07:56.000-07:00,fast_food,Eats at the Pier,"{'cuisine': 'burger;ice_cream', 'website': 'newwestpcr.ca'}"
786,49.0497709,-122.3190013,2019-09-02T22:08:26.000-07:00,fast_food,,"{'official_name': 'Kami Sushi Enterprises', 'alt_name': 'Kami Sushi', 'website': 'https://www.healthspace.ca/clients/FHA/FHA_Website.nsf/Food-FacilityHistory?OpenView&RestrictToCategory=C8A57E6F8E89394288257C3F0074E5BD', 'opening_hours': 'PH,Su 11:00-17:00; Mo-We,Sa 09:30-17:30; Th,Fr 09:30-21:00', 'cuisine': 'sushi', 'addr:unit': '24B'}"
803,49.1967129,-123.1395095,2020-01-13T01:51:46.000-08:00,fast_food,JAPADOG,"{'cuisine': 'hot_dog', 'addr:unit': '64'}"
833,49.2725297,-123.0562043,2019-09-02T22:08:26.000-07:00,fast_food,Panago Pizza,"{'delivery': 'yes', 'addr:housenumber': '1386', 'drive_through': 'no', 'opening_hours': 'Su-Th 11:00-00:00; Fr,Sa 11:00-01:00; PH 11:00-00:00', 'cuisine': 'pizza', 'addr:street': 'Nanaimo Street', 'addr:city': 'Vancouver'}"
905,49.1633833,-122.6594915,2020-02-11T02:31:22.000-08:00,fast_food,Taco Del Mar,"{'brand:wikidata': 'Q7673972', 'brand:wikipedia': 'en:Taco del Mar', 'cuisine': 'mexican', 'name:en': 'Taco Del Mar', 'takeaway': 'yes', 'brand': 'Taco Del Mar'}"
993,49.2540332,-122.7388698,2019-09-10T18:06:48.000-07:00,fast_food,Mucho Burrito,"{'brand:wikidata': 'Q65148332', 'cuisine': 'mexican', 'name:en': 'Mucho Burrito', 'takeaway': 'yes', 'brand': 'Mucho Burrito'}"
994,49.2548653,-122.7354267,2019-09-23T20:16:20.000-07:00,fast_food,McDonald's,"{'brand:wikidata': 'Q38076', 'brand:wikipedia': ""en:McDonald's"", 'cuisine': 'burger', 'name:en': ""McDonald's"", 'takeaway': 'yes', 'brand': ""McDonald's""}"
998,49.2541361,-122.7388679,2019-09-10T18:06:48.000-07:00,fast_food,Five Guys,"{'brand:wikidata': 'Q1131810', 'official_name': 'Five Guys Burgers and Fries', 'phone': '+1-604-472-9700', 'brand:wikipedia': 'en:Five Guys', 'cuisine': 'burger', 'name:en': 'Five Guys', 'takeaway': 'yes', 'brand': 'Five Guys'}"
999,49.2544914,-122.7381621,2019-09-10T18:06:48.000-07:00,fast_food,Subway,"{'brand:wikidata': 'Q244457', 'brand:wikipedia': 'en:Subway (restaurant)', 'cuisine': 'sandwich', 'name:en': 'Subway', 'takeaway': 'yes', 'brand': 'Subway'}"
1031,49.1399686,-122.6001998,2016-09-22T03:34:08.000-07:00,fast_food,The Lower Cafe,{}
1096,49.2567827,-123.184916,2019-08-29T19:07:45.000-07:00,fast_food,Dairy Queen,"{'brand:wikidata': 'Q1141226', 'brand:wikipedia': 'en:Dairy Queen', 'opening_hours': 'Mo-Su 10:30-22:00', 'cuisine': 'ice_cream;burger', 'name:en': 'Dairy Queen', 'takeaway': 'yes', 'brand': 'Dairy Queen'}"
1098,49.171823,-122.6674842,2019-06-07T13:28:04.000-07:00,fast_food,Quiznos,"{'brand:wikidata': 'Q1936229', 'brand:wikipedia': 'en:Quiznos', 'cuisine': 'sandwich', 'name:en': 'Quiznos Subs', 'takeaway': 'yes', 'brand': 'Quiznos'}"
1249,49.3264468,-123.1204257,2016-09-26T18:59:57.000-07:00,fast_food,Panago,{'name:en': 'Panago'}
1252,49.29089,-123.1342671,2019-08-29T18:02:26.000-07:00,fast_food,Subway,"{'brand:wikidata': 'Q244457', 'brand:wikipedia': 'en:Subway (restaurant)', 'cuisine': 'sandwich', 'name:en': 'Subway', 'takeaway': 'yes', 'brand': 'Subway'}"
1254,49.1659998,-122.6645407,2019-08-24T15:24:21.000-07:00,fast_food,Booster Juice,"{'brand:wikidata': 'Q4943796', 'brand:wikipedia': 'en:Booster Juice', 'cuisine': 'juice', 'name:en': 'Booster Juice', 'takeaway': 'yes', 'brand': 'Booster Juice'}"
1259,49.2081902,-123.1401346,2012-02-27T23:58:12.000-08:00,fast_food,Freshslice,{'cuisine': 'pizza'}
1260,49.208235,-123.1401305,2012-04-14T07:23:46.000-07:00,fast_food,Donair Spot,{'cuisine': 'donair'}
1309,49.2312042,-123.0657754,2019-09-13T13:57:02.000-07:00,fast_food,Freshslice Pizza,"{'addr:housenumber': '5845', 'addr:street': 'Victoria Drive', 'addr:city': 'Vancouver'}"
1374,49.0498661,-122.311635,2019-09-02T22:08:26.000-07:00,fast_food,Subway,"{'brand:wikidata': 'Q244457', 'level': '0', 'brand:wikipedia': 'en:Subway (restaurant)', 'cuisine': 'sandwich', 'addr:postcode': 'V2S 5A1', 'takeaway': 'yes', 'addr:unit': '404', 'addr:housenumber': '32900', 'opening_hours': 'Mo,Tu,Sa 09:30-18:00; We-Fr 09:30-21:00; Su,PH 11:00-18:00', 'indoor': 'yes', 'addr:street': 'South Fraser Way', 'brand': 'Subway'}"
1375,49.0498031,-122.3114531,2019-09-02T22:08:26.000-07:00,fast_food,A&W,"{'brand:wikidata': 'Q2818848', 'website': 'http://aw.ca', 'internet_access': 'wlan', 'level': '0', 'brand:wikipedia': 'en:A&W (Canada)', 'internet_access:fee': 'no', 'cuisine': 'burger', 'addr:postcode': 'V2S 5A1', 'takeaway': 'yes', 'addr:unit': '402', 'addr:housenumber': '32900', 'opening_hours': 'Mo,Tu,Sa 09:30-18:00; We-Fr 09:30-21:00; Su,PH 11:00-18:00', 'indoor': 'yes', 'outdoor_seating': 'no', 'addr:street': 'South Fraser Way', 'brand': 'A&W'}"
1377,49.0495367,-122.3117487,2019-09-02T22:08:26.000-07:00,fast_food,DQ Orange Julius,"{'official_name': 'Dairy Queen Orange Julius Treat Centre', 'addr:housenumber': '32900', 'website': 'http://www.orangejulius.com', 'level': '0', 'opening_hours': 'Mo,Tu,Sa 09:30-18:00; We-Fr 09:30-21:00; Su,PH 11:00-18:00', 'cuisine': 'juice', 'indoor': 'yes', 'addr:street': 'South Fraser Way', 'addr:postcode': 'V2S 5A1', 'addr:unit': '410'}"
1378,49.0496405,-122.3118348,2019-10-29T04:00:37.000-07:00,fast_food,New York Fries,"{'brand:wikidata': 'Q7013558', 'website': 'https://m.facebook.com/nyfsevenoaks', 'level': '0', 'brand:wikipedia': 'en:New York Fries', 'cuisine': 'fries', 'addr:postcode': 'V2S 5A1', 'takeaway': 'yes', 'addr:unit': '409', 'url': 'http://www.newyorkfries.com', 'addr:housenumber': '32900', 'opening_hours': 'Mo,Tu,Sa 09:30-18:00; We-Fr 09:30-21:00; Su,PH 11:00-18:00', 'indoor': 'yes', 'addr:street': 'South Fraser Way', 'brand': 'New York Fries'}"
1379,49.0495887,-122.3117934,2019-09-02T22:08:26.000-07:00,fast_food,OPA! of Greece,"{'addr:housenumber': '32900', 'website': 'https://opasouvlaki.ca/', 'phone': '+1-604-746-5559', 'level': '0', 'opening_hours': 'Mo,Tu,Sa 09:30-18:00; We-Fr 09:30-21:00; Su,PH 11:00-18:00', 'cuisine': 'greek', 'indoor': 'yes', 'addr:street': 'South Fraser Way', 'addr:postcode': 'V2S 5A1', 'addr:unit': '410'}"
1381,49.0498388,-122.3117035,2019-09-02T22:08:26.000-07:00,fast_food,Manchu Wok,"{'brand:wikidata': 'Q6747622', 'website': 'https://manchuwok.com/', 'level': '0', 'brand:wikipedia': 'en:Manchu Wok', 'cuisine': 'chinese', 'addr:postcode': 'V2S 5A1', 'takeaway': 'yes', 'addr:unit': '405', 'addr:housenumber': '32900', 'opening_hours': 'Mo,Tu,Sa 09:30-18:00; We-Fr 09:30-21:00; Su,PH 11:00-18:00', 'indoor': 'yes', 'addr:street': 'South Fraser Way', 'brand': 'Manchu Wok'}"
1382,49.0496845,-122.311872,2019-09-02T22:08:26.000-07:00,fast_food,ono's of Japan,"{'addr:housenumber': '32900', 'level': '0', 'opening_hours': 'Mo,Tu,Sa 09:30-18:00; We-Fr 09:30-21:00; Su,PH 11:00-18:00', 'cuisine': 'japanese', 'indoor': 'yes', 'addr:street': 'South Fraser Way', 'addr:postcode': 'V2S 5A1', 'addr:unit': '408'}"
1383,49.0497721,-122.311822,2019-10-29T04:00:37.000-07:00,fast_food,Freshslice Pizza,"{'brand:wikidata': 'Q5503082', 'level': '0', 'brand:wikipedia': 'en:Freshslice Pizza', 'cuisine': 'pizza', 'addr:postcode': 'V2S 5A1', 'takeaway': 'yes', 'addr:unit': '407', 'addr:housenumber': '32900', 'opening_hours': 'Mo,Tu,Sa 09:30-18:00; We-Fr 09:30-21:00; Su,PH 11:00-18:00', 'indoor': 'yes', 'addr:street': 'South Fraser Way', 'brand': 'Freshslice Pizza'}"
1384,49.049844,-122.3115361,2019-09-02T22:08:26.000-07:00,fast_food,Thaï Express,"{'website': 'https://www.thaiexpress.ca', 'internet_access': 'wlan', 'level': '0', 'internet_access:fee': 'no', 'cuisine': 'thai', 'addr:postcode': 'V2S 5A1', 'addr:unit': '403', 'addr:housenumber': '32900', 'alt_name': 'Thai Express', 'opening_hours': 'Mo,Tu,Sa 09:30-18:00; We-Fr 09:30-21:00; Su,PH 11:00-18:00', 'indoor': 'yes', 'addr:street': 'South Fraser Way'}"
1424,49.2630367,-123.1013042,2020-06-23T20:58:12.000-07:00,fast_food,Freshslice Pizza,"{'brand:wikidata': 'Q5503082', 'addr:housenumber': '183', 'brand:wikipedia': 'en:Freshslice Pizza', 'opening_hours': 'Mo-We 10:00-01:00; Th 10:00-02:00; Fr 10:00-03:30; Sa 11:00-03:30; Su 11:00-23:00', 'cuisine': 'pizza', 'name:en': 'Freshslice Pizza', 'addr:street': 'East Broadway', 'takeaway': 'yes', 'brand': 'Freshslice Pizza'}"
1455,49.1997306,-122.7784622,2019-09-13T13:56:59.000-07:00,fast_food,A&W,"{'website': 'https://web.aw.ca/en/our-menu', 'internet_access': 'wlan', 'internet_access:fee': 'no', 'cuisine': 'burger;chicken;coffee_shop', 'addr:postcode': 'V4N 1P2', 'addr:unit': '101', 'addr:city': 'Surrey', 'addr:housenumber': '16033', 'smoking': 'no', 'opening_hours': 'Mo-Su 06:00-22:00', 'outdoor_seating': 'yes', 'addr:street': '108 Avenue'}"
1470,49.2081236,-123.1407827,2019-05-29T17:48:57.000-07:00,fast_food,McDonald's,"{'brand:wikidata': 'Q38076', 'wheelchair': 'limited', 'website': 'http://www.mcdonalds.ca/', 'internet_access': 'wlan', 'brand:wikipedia': ""en:McDonald's"", 'cuisine': 'burger', 'takeaway': 'yes', 'brand': ""McDonald's""}"
1471,49.2601826,-123.0056472,2019-09-23T20:22:13.000-07:00,fast_food,McDonald's,"{'brand:wikidata': 'Q38076', 'cuisine': 'burger', 'takeaway': 'yes', 'brand': ""McDonald's"", 'brand:wikipedia': ""en:McDonald's""}"
1472,49.265883,-123.0242786,2019-09-23T20:23:08.000-07:00,fast_food,McDonald's,"{'brand:wikidata': 'Q38076', 'addr:housenumber': '3695', 'website': 'http://www.mcdonalds.ca/', 'internet_access': 'wlan', 'brand:wikipedia': ""en:McDonald's"", 'cuisine': 'burger', 'addr:street': 'Lougheed Highway', 'takeaway': 'yes', 'brand': ""McDonald's""}"
1476,49.1239129,-123.1863673,2014-03-24T02:19:11.000-07:00,fast_food,Pajo's Fish and Chips,"{'cuisine': 'fish_and_chips', 'url': 'http://www.pajos.com'}"
1478,49.2467974,-123.068237,2019-10-28T18:00:55.000-07:00,fast_food,Subway,"{'brand:wikidata': 'Q244457', 'cuisine': 'sandwich', 'takeaway': 'yes', 'brand': 'Subway', 'brand:wikipedia': 'en:Subway (restaurant)'}"
1485,49.2191586,-122.9695668,2019-07-02T01:21:58.000-07:00,fast_food,Papa John's,"{'brand:wikidata': 'Q2759586', 'brand:wikipedia': ""en:Papa John's Pizza"", 'cuisine': 'pizza', 'takeaway': 'yes', 'brand': ""Papa John's"", 'url': 'http://www.papajohnspizza.ca/Menu.aspx?T=t&RestaurantID=7288a6a4-eadc-4854-bfea-12fb1911f6b5'}"
1486,49.2196492,-122.9692126,2010-04-18T01:35:51.000-07:00,fast_food,A&W,{}
1488,49.2196001,-122.9683007,2019-06-29T22:44:48.000-07:00,fast_food,Subway,"{'brand:wikidata': 'Q244457', 'cuisine': 'sandwich', 'takeaway': 'yes', 'brand': 'Subway', 'brand:wikipedia': 'en:Subway (restaurant)'}"
1489,49.2196141,-122.9685904,2019-06-29T22:44:48.000-07:00,fast_food,Panago,"{'brand:wikidata': 'Q17111672', 'wheelchair': 'yes', 'brand:wikipedia': 'en:Panago', 'cuisine': 'pizza', 'takeaway': 'yes', 'brand': 'Panago', 'url': 'https://www.panago.com/'}"
1490,49.2218138,-122.9969317,2020-04-10T05:45:22.000-07:00,fast_food,Domino's,"{'brand:wikidata': 'Q839466', 'delivery': 'yes', 'brand:wikipedia': ""en:Domino's Pizza"", 'drive_through': 'no', 'cuisine': 'pizza', 'short_name': ""Domino's"", 'takeaway': 'yes', 'brand': ""Domino's""}"
1498,49.233088,-123.0657292,2019-09-24T20:01:38.000-07:00,fast_food,McDonald's,"{'brand:wikidata': 'Q38076', 'internet_access': 'wlan', 'brand:wikipedia': ""en:McDonald's"", 'cuisine': 'burger', 'takeaway': 'yes', 'brand': ""McDonald's""}"
1499,49.233102,-123.0659438,2017-02-07T17:35:29.000-08:00,fast_food,Kent's Kitchen,"{'cuisine': 'chinese', 'addr:housenumber': '5659', 'addr:street': 'Victoria Drive'}"
1503,49.2179175,-123.0766614,2010-04-18T06:23:44.000-07:00,fast_food,Hometown Pizza,{'cuisine': 'pizza'}
1507,49.2256886,-123.0777235,2010-07-18T06:38:41.000-07:00,fast_food,Papa Dave's Pizza Indian Cuisine,{}
1508,49.2182564,-123.0773813,2020-01-02T00:34:56.000-08:00,fast_food,McDonald's,"{'brand:wikidata': 'Q38076', 'addr:housenumber': '7295', 'website': 'http://www.mcdonalds.ca/', 'internet_access': 'wlan', 'brand:wikipedia': ""en:McDonald's"", 'opening_hours': '24/7', 'cuisine': 'burger', 'addr:street': 'Knight Street', 'takeaway': 'yes', 'brand': ""McDonald's""}"
1511,49.2256116,-123.0777236,2019-09-27T12:18:43.000-07:00,fast_food,KFC,"{'brand:wikidata': 'Q524757', 'alt_name': 'Kentucky Fried Chicken', 'brand:wikipedia': 'en:KFC', 'cuisine': 'chicken', 'takeaway': 'yes', 'brand': 'KFC'}"
1535,49.2633884,-123.1160798,2019-08-21T21:33:31.000-07:00,fast_food,McDonald's,"{'brand:wikidata': 'Q38076', 'addr:housenumber': '537', 'website': 'http://www.mcdonalds.ca/', 'internet_access': 'wlan', 'phone': '+1-604-718-1061', 'brand:wikipedia': ""en:McDonald's"", 'cuisine': 'burger', 'addr:street': 'West Broadway', 'addr:postcode': 'V5Z 1E6', 'takeaway': 'yes', 'brand': ""McDonald's""}"
1548,49.2632776,-123.1106188,2019-06-16T01:19:55.000-07:00,fast_food,Fatburger,"{'opening_hours': 'Su-Th 10:00-21:00; Fr,Sa 10:00-22:00', 'cuisine': 'burger'}"
1555,49.2633362,-123.113621,2019-09-13T13:56:49.000-07:00,fast_food,Subway,"{'brand:wikidata': 'Q244457', 'addr:housenumber': '433', 'phone': '+1-604-569-3961', 'brand:wikipedia': 'en:Subway (restaurant)', 'cuisine': 'sandwich', 'outdoor_seating': 'no', 'addr:street': 'West Broadway', 'addr:postcode': 'V5Y 1R4', 'takeaway': 'yes', 'brand': 'Subway', 'addr:city': 'Vancouver'}"
1557,49.2634886,-123.1215189,2020-02-16T02:23:38.000-08:00,fast_food,A&W,"{'cuisine': 'burger', 'addr:housenumber': '777', 'addr:street': 'West Broadway', 'drive_through': 'no', 'addr:city': 'Vancouver'}"
1561,49.2390725,-123.0650033,2017-06-12T20:02:26.000-07:00,fast_food,Dairy Queen,{'url': 'http://www.dairyqueen.com/us-en/store-details/7706/'}
1601,49.2906218,-123.1338516,2019-09-13T13:56:59.000-07:00,fast_food,McDonald's,"{'brand:wikidata': 'Q38076', 'addr:housenumber': '1701', 'internet_access': 'wlan', 'brand:wikipedia': ""en:McDonald's"", 'opening_hours': '24/7', 'cuisine': 'burger', 'addr:street': 'Robson Street', 'takeaway': 'yes', 'brand': ""McDonald's"", 'addr:city': 'Vancouver'}"
1646,49.184369,-122.9507625,2016-08-25T04:42:07.000-07:00,fast_food,Queensboro Pizza,"{'cuisine': 'pizza', 'takeaway': 'yes'}"
1650,49.2787084,-122.8066737,2020-01-17T07:58:29.000-08:00,fast_food,Domino's,"{'brand:wikidata': 'Q839466', 'brand:wikipedia': ""en:Domino's Pizza"", 'cuisine': 'pizza', 'name:en': ""Domino's Pizza"", 'takeaway': 'yes', 'brand': ""Domino's""}"
1671,49.2272898,-123.0001015,2018-04-21T18:56:31.000-07:00,fast_food,Uni Sushi Express,"{'level': '0', 'name:en': 'Uni Sushi Express'}"
1701,49.1186802,-122.6700701,2017-03-10T23:00:54.000-08:00,fast_food,Fresh Donair,"{'wheelchair': 'yes', 'cuisine': 'international', 'level': '0'}"
1706,49.213342,-122.9375173,2017-03-11T04:01:06.000-08:00,fast_food,Quick Bite,{'name:en': 'Quick Bite'}
1716,49.218633,-122.9551616,2019-07-02T01:21:58.000-07:00,fast_food,Burger King,"{'brand:wikidata': 'Q177054', 'brand:wikipedia': 'en:Burger King', 'cuisine': 'burger', 'name:en': 'Burger King', 'takeaway': 'yes', 'brand': 'Burger King'}"
1719,49.2255444,-122.9968024,2018-04-21T18:51:10.000-07:00,fast_food,Chop n Toss,"{'level': '1', 'name:en': 'Chop n Toss'}"
1721,49.2258643,-122.9969705,2019-05-27T03:58:18.000-07:00,fast_food,Burger King,"{'brand:wikidata': 'Q177054', 'level': '1', 'brand:wikipedia': 'en:Burger King', 'cuisine': 'burger', 'takeaway': 'yes', 'brand': 'Burger King'}"
1722,49.2258877,-122.9975787,2019-07-20T18:37:01.000-07:00,fast_food,Chef Tony Dim Sum,"{'cuisine': 'dim sum', 'name:en': 'Chef Tony Dim Sum', 'level': '1'}"
1723,49.2253972,-122.9972623,2019-02-03T01:58:34.000-08:00,fast_food,Chronic Tacos,"{'level': '1', 'cuisine': 'mexican'}"
1724,49.2254547,-122.9975777,2019-05-27T03:58:18.000-07:00,fast_food,Thaï Express,"{'brand:wikidata': 'Q7711610', 'level': '1', 'brand:wikipedia': 'en:Thaï Express', 'cuisine': 'thai', 'takeaway': 'yes', 'brand': 'Thaï Express'}"
1732,49.2254008,-122.997067,2019-02-03T01:58:33.000-08:00,fast_food,Koya Japan,"{'level': '1', 'cuisine': 'japanese'}"
1733,49.2254531,-122.9968869,2019-05-27T03:58:18.000-07:00,fast_food,Subway,"{'brand:wikidata': 'Q244457', 'level': '1', 'brand:wikipedia': 'en:Subway (restaurant)', 'cuisine': 'sandwich', 'name:en': 'Subway', 'takeaway': 'yes', 'brand': 'Subway'}"
1736,49.2257969,-122.9968887,2019-02-03T00:48:17.000-08:00,fast_food,Bubble Waffle Cafe,{'level': '1'}
1737,49.2258275,-122.9969398,2019-05-27T03:58:18.000-07:00,fast_food,Manchu Wok,"{'brand:wikidata': 'Q6747622', 'level': '1', 'brand:wikipedia': 'en:Manchu Wok', 'cuisine': 'chinese', 'name:en': 'Manchu Wok', 'takeaway': 'yes', 'brand': 'Manchu Wok'}"
1738,49.2254863,-122.9976519,2019-02-03T01:58:35.000-08:00,fast_food,Vina Vietnamese,"{'level': '1', 'cuisine': 'vietnamese'}"
1739,49.2255226,-122.9977261,2019-02-03T01:58:36.000-08:00,fast_food,Chachi’s,{'level': '1'}
1740,49.2255531,-122.9977931,2017-09-03T06:59:24.000-07:00,fast_food,U-Grill,"{'level': '1', 'name:en': 'U-Grill'}"
1747,49.2259279,-122.9975146,2019-07-20T18:37:01.000-07:00,fast_food,Crêpe de Licious,{'level': '1'}
1748,49.2258084,-122.9977187,2019-07-20T18:37:01.000-07:00,fast_food,Curry Express,"{'cuisine': 'indian', 'name:en': 'Curry Express', 'level': '1'}"
1749,49.2257836,-122.9978073,2019-08-24T15:19:56.000-07:00,fast_food,Orange Julius,"{'brand:wikidata': 'Q3355059', 'level': '1', 'brand:wikipedia': 'en:Orange Julius', 'cuisine': 'juice', 'name:en': 'Orange Julius', 'takeaway': 'yes', 'brand': 'Orange Julius'}"
1757,49.2275306,-122.999928,2019-10-28T03:54:27.000-07:00,fast_food,Freshslice Pizza,"{'brand:wikidata': 'Q5503082', 'level': '1', 'brand:wikipedia': 'en:Freshslice Pizza', 'cuisine': 'pizza', 'name:en': 'Fresh Slice Pizza', 'takeaway': 'yes', 'brand': 'Freshslice Pizza'}"
1759,49.2257638,-122.9967208,2019-07-20T18:37:01.000-07:00,fast_food,Togo Sushi,"{'level': '1', 'name:en': 'Togo Sushi'}"
1763,49.2253988,-122.9971646,2019-02-03T00:48:03.000-08:00,fast_food,Opa! Of Greece,{'level': '1'}
1764,49.2254197,-122.9969699,2019-07-05T05:09:00.000-07:00,fast_food,KFC,"{'brand:wikidata': 'Q524757', 'alt_name': 'Kentucky Fried Chicken', 'level': '1', 'brand:wikipedia': 'en:KFC', 'cuisine': 'chicken', 'takeaway': 'yes', 'brand': 'KFC'}"
1765,49.2254951,-122.9968289,2019-07-05T05:09:00.000-07:00,fast_food,New York Fries,"{'brand:wikidata': 'Q7013558', 'level': '1', 'brand:wikipedia': 'en:New York Fries', 'cuisine': 'fries', 'takeaway': 'yes', 'brand': 'New York Fries'}"
1766,49.2258501,-122.9976493,2019-02-03T00:48:04.000-08:00,fast_food,Bourbon St. Grill,{'level': '1'}
1767,49.2254058,-122.9973612,2019-05-27T03:58:18.000-07:00,fast_food,A&W,"{'brand:wikidata': 'Q2818848', 'level': '1', 'brand:wikipedia': 'en:A&W (Canada)', 'cuisine': 'burger', 'takeaway': 'yes', 'brand': 'A&W'}"
1770,49.2274703,-122.9998197,2017-09-03T06:59:32.000-07:00,fast_food,The American Cheese Steak Co.,"{'level': '1', 'name:en': 'The American Cheese Steak Co.'}"
1787,49.2507154,-122.89576,2017-03-13T04:15:55.000-07:00,fast_food,Sashimi Sushi,{'name:en': 'Sashimi Sushi'}
1790,49.2798847,-123.1068032,2018-12-11T02:45:24.000-08:00,fast_food,Canra Plus,{'cuisine': 'srilankan'}
1791,49.2799835,-123.1065637,2019-12-01T04:03:46.000-08:00,fast_food,Ryo,"{'cuisine': 'japanese', 'level': '1', 'drive_through': 'no'}"
1792,49.2800531,-123.1064691,2019-12-01T04:03:46.000-08:00,fast_food,India’s Flavour,"{'cuisine': 'indian', 'level': '1', 'drive_through': 'no'}"
1793,49.2800925,-123.1064315,2019-12-01T04:03:46.000-08:00,fast_food,Kazoku,"{'cuisine': 'vietnamese', 'level': '1', 'drive_through': 'no'}"
1802,49.227688,-122.836293,2017-03-13T04:11:14.000-07:00,fast_food,Made to Order Chip's,"{'name:en': ""Made to Order Chip's""}"
1804,49.2278297,-122.8401544,2017-03-13T04:11:20.000-07:00,fast_food,Triple Os,{'name:en': 'Triple Os'}
1811,49.2507778,-122.8945798,2017-03-13T04:12:59.000-07:00,fast_food,Wok,{'name:en': 'Wok'}
1812,49.25081,-122.8946267,2017-03-13T04:13:01.000-07:00,fast_food,Kojo of Japan,{'name:en': 'Kojo of Japan'}
1814,49.2508506,-122.8947628,2019-09-27T12:21:02.000-07:00,fast_food,A&W,"{'brand:wikidata': 'Q2818848', 'brand:wikipedia': 'en:A&W (Canada)', 'cuisine': 'burger', 'name:en': 'A&W', 'takeaway': 'yes', 'brand': 'A&W'}"
1816,49.2277796,-122.8362961,2017-03-13T04:11:12.000-07:00,fast_food,FU Express,{'name:en': 'FU Express'}
1817,49.2276126,-122.83629379999999,2017-03-13T04:11:15.000-07:00,fast_food,Roadies,{'name:en': 'Roadies'}
1841,49.2808969,-123.1073143,2019-12-01T04:03:46.000-08:00,fast_food,McDonald's,"{'brand:wikidata': 'Q38076', 'level': '0', 'brand:wikipedia': ""en:McDonald's"", 'cuisine': 'burger', 'takeaway': 'yes', 'addr:city': 'Vancouver', 'addr:housenumber': '88', 'drive_through': 'no', 'opening_hours': 'Su-Th 06:00-23:00; Fr-Sa 00:00-24:00', 'name:en': ""McDonald's"", 'addr:street': 'West Pender Street', 'brand': ""McDonald's""}"
1858,49.2799281,-123.1066781,2019-08-29T17:37:11.000-07:00,fast_food,Taco Time,"{'brand:wikidata': 'Q7673969', 'level': '1', 'brand:wikipedia': 'en:Taco Time', 'cuisine': 'mexican', 'takeaway': 'yes', 'brand': 'Taco Time'}"
1862,49.2799047,-123.106734,2018-12-11T02:45:20.000-08:00,fast_food,Bubble King,{'level': '1'}
1863,49.2799553,-123.1066209,2019-12-01T04:03:46.000-08:00,fast_food,Tina,"{'cuisine': 'vietnamese', 'level': '1', 'drive_through': 'no'}"
1864,49.2800166,-123.1065184,2019-12-01T04:03:46.000-08:00,fast_food,Thai Town,"{'cuisine': 'thai', 'level': '1', 'drive_through': 'no'}"
1865,49.2801753,-123.1063639,2019-12-01T04:03:46.000-08:00,fast_food,Wow Thai Food,"{'cuisine': 'thai', 'addr:housenumber': '88', 'addr:street': 'West Pender Street', 'level': '1', 'addr:city': 'Vancouver'}"
1866,49.2802143,-123.1063341,2019-12-01T04:03:46.000-08:00,fast_food,Bali Thai,"{'addr:housenumber': '88', 'level': '1', 'drive_through': 'no', 'cuisine': 'indonesian', 'addr:street': 'West Pender Street', 'addr:city': 'Vancouver'}"
1867,49.2802598,-123.1063002,2019-12-01T04:03:46.000-08:00,fast_food,Giant Panda,"{'addr:housenumber': '88', 'level': '1', 'drive_through': 'no', 'cuisine': 'szechuan;chinese', 'addr:street': 'West Pender Street', 'addr:city': 'Vancouver'}"
1874,49.3050257,-123.0144026,2016-09-11T23:53:35.000-07:00,fast_food,Tim Hortons,{}
1928,49.1960345,-123.1771649,2019-09-14T05:00:22.000-07:00,fast_food,Wendy's,"{'brand:wikidata': 'Q550258', 'addr:housenumber': '3880', 'brand:wikipedia': ""en:Wendy's"", 'cuisine': 'burger', 'addr:street': 'Grant McConachie Way', 'takeaway': 'yes', 'brand': ""Wendy's""}"
1929,49.1957016,-123.1769158,2016-09-05T17:55:07.000-07:00,fast_food,Thai Hang,{}
1958,49.0365009,-122.2911624,2019-06-17T23:11:39.000-07:00,fast_food,Papa John's,"{'brand:wikidata': 'Q2759586', 'addr:housenumber': '1868', 'website': 'https://www.papajohns.ca', 'ref': '11713', 'phone': '+1-604-746-3100', 'brand:wikipedia': ""en:Papa John's Pizza"", 'cuisine': 'pizza', 'addr:street': 'McCallum Road', 'takeaway': 'yes', 'brand': ""Papa John's"", 'addr:unit': '120'}"
1977,49.28645,-123.1403248,2017-04-16T02:39:32.000-07:00,fast_food,Yummy to Go,"{'cuisine': 'japanese', 'addr:housenumber': '1711', 'name:en': 'Yummy to Go', 'addr:street': 'Davie Street'}"
2021,49.2726318,-123.1353692,2020-02-27T21:56:22.000-08:00,fast_food,Fraser Valley Juice,"{'indoor': 'yes', 'addr:unit': '113'}"
2022,49.2726607,-123.1353169,2020-02-27T21:56:22.000-08:00,fast_food,Pizza Pzazz,"{'cuisine': 'pizza', 'indoor': 'yes', 'phone': '+1-604-689-9002'}"
2043,49.2295422,-123.0031558,2017-03-17T04:19:09.000-07:00,fast_food,Wu Han Spicy Duck,{'name:en': 'Wu Han Spicy Duck'}
2049,49.2195995,-122.9680176,2019-09-13T13:57:00.000-07:00,fast_food,Church's Chicken,"{'brand:wikidata': 'Q1089932', 'addr:housenumber': '103-6591', 'brand:wikipedia': ""en:Church's Chicken"", 'drive_through': 'no', 'cuisine': 'chicken', 'addr:street': 'Kingsway', 'takeaway': 'yes', 'brand': ""Church's Chicken"", 'addr:city': 'Burnaby'}"
2051,49.2186313,-122.955309,2017-03-17T17:08:14.000-07:00,fast_food,Cora,{'name:en': 'Cora'}
2055,49.2128537,-122.9368713,2019-07-10T04:41:29.000-07:00,fast_food,Subway,"{'brand:wikidata': 'Q244457', 'brand:wikipedia': 'en:Subway (restaurant)', 'cuisine': 'sandwich', 'name:en': 'Subway', 'takeaway': 'yes', 'brand': 'Subway'}"
2069,49.2821283,-123.1164589,2018-02-12T00:19:53.000-08:00,fast_food,Bay Sushi Cafe,"{'opening_hours': 'Mo-Su 10:00-19:30', 'addr:housenumber': '678', 'addr:street': 'Seymour Street'}"
2070,49.2820949,-123.1165023,2016-09-07T19:05:13.000-07:00,fast_food,Kung Fu Noodle,"{'addr:housenumber': '682', 'addr:street': 'Seymour Street'}"
2072,49.2826167,-123.1151176,2019-09-18T23:00:49.000-07:00,fast_food,Pokérrito,"{'cuisine': 'poke', 'addr:housenumber': '558', 'addr:street': 'Dunsmuir Street', 'addr:postcode': 'V6B 1Y1', 'addr:city': 'Vancouver'}"
2073,49.282708,-123.1147514,2019-09-18T23:00:49.000-07:00,fast_food,Dae Ji,"{'opening_hours': 'Mo-Fr 11:00-21:00; Sa 12:00-21:00', 'addr:housenumber': '519', 'addr:street': 'Dunsmuir Street', 'addr:city': 'Vancouver'}"
2074,49.2826109,-123.1146226,2019-09-18T23:00:49.000-07:00,fast_food,Sushi Home,"{'cuisine': 'sushi', 'addr:housenumber': '509', 'addr:street': 'Dunsmuir Street', 'addr:city': 'Vancouver'}"
2075,49.2825668,-123.1145555,2019-09-18T23:00:49.000-07:00,fast_food,Big Bowl Rice,"{'addr:housenumber': '505', 'addr:street': 'Dunsmuir Street', 'addr:city': 'Vancouver'}"
2094,49.1771813,-122.6691551,2019-06-07T13:28:04.000-07:00,fast_food,McDonald's,"{'brand:wikidata': 'Q38076', 'addr:housenumber': '19955', 'internet_access': 'wlan', 'brand:wikipedia': ""en:McDonald's"", 'cuisine': 'burger', 'name:en': ""McDonald's"", 'addr:street': '96 Avenue', 'takeaway': 'yes', 'brand': ""McDonald's""}"
2097,49.2029525,-122.9086925,2016-10-02T21:56:45.000-07:00,fast_food,Fresh Slice Pizza,{'name:en': 'Fresh Slice Pizza'}
2098,49.2116185,-122.9237431,2019-07-02T01:10:30.000-07:00,fast_food,Panago,"{'brand:wikidata': 'Q17111672', 'brand:wikipedia': 'en:Panago', 'cuisine': 'pizza', 'name:en': 'Panago', 'takeaway': 'yes', 'brand': 'Panago'}"
2109,49.1126928,-122.6723021,2019-09-13T13:56:59.000-07:00,fast_food,Chipotle,"{'brand:wikidata': 'Q465751', 'official_name': 'Chipotle Mexican Grill', 'addr:housenumber': '19898', 'brand:wikipedia': 'en:Chipotle Mexican Grill', 'cuisine': 'mexican', 'addr:street': 'Langley Bypass', 'takeaway': 'yes', 'brand': 'Chipotle', 'addr:unit': '110', 'addr:city': 'Langley'}"
2146,49.2750527,-123.1221518,2016-10-06T19:04:02.000-07:00,fast_food,Living Produce Aisle,{}
2153,49.2751119,-123.1214624,2019-09-02T22:08:26.000-07:00,fast_food,Mister,"{'website': 'http://madebymister.com', 'payment:credit_cards': 'yes', 'payment:cash': 'yes', 'description': 'Artisan Ice Cream', 'cuisine': 'ice_cream', 'addr:postcode': 'V6B 5P2', 'addr:city': 'Vancouver', 'addr:housenumber': '1141', 'phone': '+1-778-379-2833', 'drive_through': 'no', 'opening_hours': 'Su-Th 12:00-22:00; Fr-Sa 12:00-21:00', 'name:en': 'Mister Artisan Ice Cream', 'addr:street': 'Mainland Street', 'payment:debit_cards': 'yes'}"
2168,49.1537523,-123.1584726,2020-01-06T02:05:04.000-08:00,fast_food,McDonald's,"{'brand:wikidata': 'Q38076', 'addr:housenumber': '8140', 'website': 'http://www.mcdonalds.ca/', 'internet_access': 'wlan', 'phone': '+1-604-370-4750', 'brand:wikipedia': ""en:McDonald's"", 'opening_hours': 'Su-Sa 05:00-24:00', 'cuisine': 'burger', 'addr:street': 'No. 2 Road', 'takeaway': 'yes', 'brand': ""McDonald's""}"
2170,49.1548975,-123.1578804,2019-06-08T06:32:06.000-07:00,fast_food,Subway,"{'brand:wikidata': 'Q244457', 'cuisine': 'sandwich', 'takeaway': 'yes', 'brand': 'Subway', 'brand:wikipedia': 'en:Subway (restaurant)'}"
2182,49.263303,-123.1007167,2018-12-20T02:09:25.000-08:00,fast_food,Pizza 604,"{'opening_hours': 'Mo-Sa 16:35-22:35; Su 16:30-21:00', 'cuisine': 'pizza', 'addr:housenumber': '2444', 'outdoor_seating': 'no', 'addr:street': 'Main Street'}"
2307,49.1691756,-122.9586576,2019-10-02T16:01:57.000-07:00,fast_food,Wendy's,"{'opening_hours': 'Mo-Fr 10:00-20:00; Sa-Su 10:00-22:00', 'cuisine': 'burger', 'addr:housenumber': '1359', 'addr:street': 'Cliveden Avenue', 'drive_through': 'yes'}"
2308,49.1692142,-122.9585182,2017-02-13T21:58:10.000-08:00,fast_food,Tim Hortons,"{'cuisine': 'regional', 'addr:housenumber': '1359', 'addr:street': 'Cliveden Avenue', 'internet_access': 'wlan'}"
2309,49.1720147,-122.9461371,2013-05-09T18:58:31.000-07:00,fast_food,Subway,{'cuisine': 'sandwich'}
2315,49.1039933,-122.6615637,2019-10-27T23:44:35.000-07:00,fast_food,Panago,"{'brand:wikidata': 'Q17111672', 'cuisine': 'pizza', 'takeaway': 'yes', 'brand': 'Panago', 'brand:wikipedia': 'en:Panago'}"
2327,49.044471,-122.7772142,2019-01-26T02:24:56.000-08:00,fast_food,A&W,"{'opening_hours': '24/7', 'cuisine': 'burger', 'addr:unit': '170'}"
2386,49.1614935,-122.8908325,2019-09-28T08:09:19.000-07:00,fast_food,KFC,"{'brand:wikidata': 'Q524757', 'alt_name': 'Kentucky Fried Chicken', 'brand:wikipedia': 'en:KFC', 'drive_through': 'yes', 'cuisine': 'chicken', 'takeaway': 'yes', 'brand': 'KFC', 'operator': 'KFC'}"
2387,49.1614786,-122.89107,2019-09-28T08:09:19.000-07:00,fast_food,Taco Bell,"{'brand:wikidata': 'Q752941', 'cuisine': 'tex-mex', 'takeaway': 'yes', 'brand': 'Taco Bell', 'brand:wikipedia': 'en:Taco Bell'}"
2388,49.2027477,-122.8795076,2019-08-05T13:11:14.000-07:00,fast_food,McDonald's,"{'brand:wikidata': 'Q38076', 'addr:housenumber': '11011', 'website': 'http://www.mcdonalds.ca/', 'internet_access': 'wlan', 'phone': '+1-604-580-4040', 'brand:wikipedia': ""en:McDonald's"", 'opening_hours': '24/7', 'cuisine': 'burger', 'addr:street': 'Scott Road', 'takeaway': 'yes', 'brand': ""McDonald's""}"
2396,49.2634479,-123.1380669,2019-09-02T22:08:25.000-07:00,fast_food,McDonald's,"{'brand:wikidata': 'Q38076', 'addr:housenumber': '1482', 'website': 'http://www.mcdonalds.ca/', 'internet_access': 'wlan', 'brand:wikipedia': ""en:McDonald's"", 'opening_hours': 'Su-Th 06:00-24:00; Fr-Sa 06:00-01:00', 'cuisine': 'burger', 'addr:street': 'West Broadway', 'takeaway': 'yes', 'brand': ""McDonald's""}"
2398,49.2656704,-123.2542726,2019-05-29T17:24:51.000-07:00,fast_food,Pizza Pizza,"{'brand:wikidata': 'Q1194143', 'cuisine': 'pizza', 'takeaway': 'yes', 'brand': 'Pizza Pizza', 'brand:wikipedia': 'en:Pizza Pizza'}"
2399,49.2655654,-123.254337,2010-06-10T17:35:38.000-07:00,fast_food,Stackables,{}
2402,49.2601863,-123.2483972,2011-02-23T20:41:46.000-08:00,fast_food,Tim Hortons,{'wheelchair': 'yes'}
2409,49.090412,-123.0782287,2019-06-09T18:54:20.000-07:00,fast_food,Subway,"{'brand:wikidata': 'Q244457', 'cuisine': 'sandwich', 'takeaway': 'yes', 'brand': 'Subway', 'brand:wikipedia': 'en:Subway (restaurant)'}"
2414,49.1616399,-123.1358929,2020-01-06T02:05:04.000-08:00,fast_food,McDonald's,"{'brand:wikidata': 'Q38076', 'website': 'http://www.mcdonalds.ca/', 'internet_access': 'wlan', 'brand:wikipedia': ""en:McDonald's"", 'cuisine': 'burger', 'takeaway': 'yes', 'addr:city': 'Richmond', 'addr:housenumber': '7120', 'phone': '+1-604-718-1045', 'drive_through': 'yes', 'smoking': 'no', 'opening_hours': '24/7', 'outdoor_seating': 'yes', 'addr:street': 'No. 3 Road', 'brand': ""McDonald's""}"
2421,49.1540431,-123.1249608,2010-06-12T03:12:14.000-07:00,fast_food,A&W,{}
2429,49.1552993,-123.123732,2017-08-19T05:15:41.000-07:00,fast_food,Church's Chicken,{'cuisine': 'chicken'}
2431,49.1321157,-123.0947566,2019-08-24T15:12:34.000-07:00,fast_food,Quiznos,"{'brand:wikidata': 'Q1936229', 'brand:wikipedia': 'en:Quiznos', 'cuisine': 'sandwich', 'takeaway': 'yes', 'brand': 'Quiznos', 'addr:unit': '3130'}"
2432,49.1322997,-123.0914934,2019-08-24T15:12:34.000-07:00,fast_food,Taco Del Mar,"{'brand:wikidata': 'Q7673972', 'cuisine': 'mexican', 'takeaway': 'yes', 'brand': 'Taco Del Mar', 'brand:wikipedia': 'en:Taco del Mar'}"
2438,49.0905831,-123.0857057,2016-06-08T19:47:09.000-07:00,fast_food,Panago Pizza,"{'cuisine': 'pizza', 'website': 'http://www.panago.ca'}"
2439,49.0894108,-123.0802013,2019-07-06T07:48:56.000-07:00,fast_food,Little Caesars,"{'brand:wikidata': 'Q1393809', 'cuisine': 'pizza', 'takeaway': 'yes', 'brand': 'Little Caesars', 'brand:wikipedia': 'en:Little Caesars'}"
2440,49.0359205,-123.0691691,2019-09-25T19:59:23.000-07:00,fast_food,McDonald's,"{'brand:wikidata': 'Q38076', 'addr:housenumber': '1815', 'website': 'http://www.mcdonalds.ca/', 'brand:wikipedia': ""en:McDonald's"", 'cuisine': 'burger', 'addr:street': '56 Street', 'takeaway': 'yes', 'brand': ""McDonald's""}"
2453,49.1445825,-123.0923099,2015-06-03T10:15:01.000-07:00,fast_food,Kong's Kitchen,{'cuisine': 'chinese'}
2456,49.2267483,-123.128868,2012-03-21T05:51:05.000-07:00,fast_food,A&W,{'cuisine': 'burger'}
2488,49.2796709,-123.1221195,2019-08-29T17:59:17.000-07:00,fast_food,Harvey's,"{'brand:wikidata': 'Q1466184', 'cuisine': 'burger', 'takeaway': 'yes', 'brand': ""Harvey's"", 'brand:wikipedia': ""en:Harvey's""}"
2492,49.2332678,-123.1012746,2016-06-07T20:59:04.000-07:00,fast_food,Subway,{'website': 'http://www.subway.com'}
2516,49.2739585,-123.0980509,2020-06-11T20:24:10.000-07:00,fast_food,A&W,"{'brand:wikidata': 'Q2818848', 'website': 'http://www.aw.ca', 'internet_access': 'wlan', 'brand:wikipedia': 'en:A&W (Canada)', 'opening_hours': 'Mo-Fr 06:00-20:00; Sa 07:30-20:00; Su 08:00-20:00', 'cuisine': 'burger', 'takeaway': 'yes', 'brand': 'A&W'}"
2518,49.2730825,-123.1039764,2019-07-17T21:24:14.000-07:00,fast_food,White Spot Triple O's,"{'cuisine': 'burger', 'website': 'http://www.whitespot.com', 'phone': '+1-604-310-SPOT'}"
2522,49.2838013,-123.1158299,2018-10-26T20:30:41.000-07:00,fast_food,Urban Sushi,"{'addr:housenumber': '562', 'website': 'http://www.urbansushi.com', 'phone': '+1-604-806-6218', 'opening_hours': 'Mo-Fr 11:00-20:00; Sa 11:30-19:30', 'cuisine': 'sushi', 'addr:street': 'Granville Street', 'addr:postcode': 'V6C 1W6', 'email': 'info@urbansushi.com'}"
2551,49.2730334,-123.1003915,2018-04-27T06:46:29.000-07:00,fast_food,A&W,"{'opening_hours': '24/7', 'name:en': 'A&W'}"
2569,49.3239681,-123.1028264,2019-12-27T00:25:12.000-08:00,fast_food,Subway,"{'brand:wikidata': 'Q244457', 'brand:wikipedia': 'en:Subway (restaurant)', 'drive_through': 'no', 'cuisine': 'sandwich', 'outdoor_seating': 'no', 'takeaway': 'yes', 'brand': 'Subway'}"
2581,49.2287941,-123.0049323,2018-04-21T17:32:38.000-07:00,fast_food,Fung May,"{'addr:housenumber': '2301', 'name:en': 'Fung May'}"
2583,49.2287084,-123.0049519,2017-03-22T04:32:27.000-07:00,fast_food,Hana Sushi,"{'addr:housenumber': '2121', 'name:en': 'Hana Sushi'}"
2584,49.2286381,-123.0049694,2017-03-22T04:32:31.000-07:00,fast_food,Bo Wah,"{'addr:housenumber': '2119', 'name:en': 'Bo Wah'}"
2585,49.228604,-123.004979,2017-03-22T04:32:32.000-07:00,fast_food,Shanghai,"{'addr:housenumber': '2118', 'name:en': 'Shanghai'}"
2587,49.2286289,-123.0051138,2017-03-22T04:32:48.000-07:00,fast_food,Yunnan,"{'addr:housenumber': '2128', 'name:en': 'Yunnan'}"
2588,49.2286458,-123.005225,2017-03-22T04:33:45.000-07:00,fast_food,Seafood House,"{'addr:housenumber': '2130', 'name:en': 'Seafood House'}"
2590,49.2286561,-123.0052821,2017-03-22T04:33:47.000-07:00,fast_food,99 Bbq,"{'addr:housenumber': '2131', 'name:en': '99 Bbq'}"
2592,49.228841,-123.0053282,2017-03-22T04:33:59.000-07:00,fast_food,Shaxian,"{'addr:housenumber': '2139', 'name:en': 'Shaxian'}"
2595,49.2288199,-123.0050014,2018-04-21T17:32:38.000-07:00,fast_food,Best Noodle,"{'addr:housenumber': '2302', 'name:en': 'Best Noodle'}"
2596,49.2286742,-123.0049603,2017-03-22T04:32:29.000-07:00,fast_food,Happy Ice,"{'addr:housenumber': '2120', 'name:en': 'Happy Ice'}"
2597,49.2285385,-123.0050018,2018-04-21T17:32:38.000-07:00,fast_food,Want Want,"{'addr:housenumber': '2116', 'name:en': 'Want Want'}"
2598,49.228506,-123.0050182,2018-04-21T17:32:38.000-07:00,fast_food,Chao Shou,"{'addr:housenumber': '2113', 'name:en': 'Chao Shou'}"
2599,49.2284711,-123.0050421,2018-04-21T17:32:38.000-07:00,fast_food,Delicious B.b.q.,"{'addr:housenumber': '2112', 'name:en': 'Delicious B.b.q.'}"
2600,49.2284351,-123.0049538,2017-03-22T04:32:42.000-07:00,fast_food,Shanghai Dimsum,"{'addr:housenumber': '2110', 'name:en': 'Shanghai Dimsum'}"
2602,49.2285425,-123.0050834,2017-03-22T04:32:44.000-07:00,fast_food,Huaxi,"{'addr:housenumber': '2126', 'name:en': 'Huaxi'}"
2603,49.2285812,-123.0050567,2018-04-26T01:27:08.000-07:00,fast_food,Ipoh Bean Sprout Chicken,"{'addr:housenumber': '2127', 'name:en': 'Ipoh Bean', 'level': '1'}"
2604,49.2286375,-123.0051671,2017-03-22T04:33:44.000-07:00,fast_food,Kingspark,"{'addr:housenumber': '2129', 'name:en': 'Kingspark'}"
2613,49.2286665,-123.005335,2017-03-22T04:33:48.000-07:00,fast_food,Kasuga,"{'addr:housenumber': '2132', 'name:en': 'Kasuga'}"
2614,49.228678,-123.0053886,2017-03-22T04:33:50.000-07:00,fast_food,Tasty Harmony,"{'addr:housenumber': '2133', 'name:en': 'Tasty Harmony'}"
2615,49.2286927,-123.0054378,2017-03-22T04:33:51.000-07:00,fast_food,House Teppan,"{'addr:housenumber': '2135', 'name:en': 'House Teppan'}"
2616,49.2287391,-123.0054119,2017-03-22T04:33:53.000-07:00,fast_food,Gullin Rice,"{'addr:housenumber': '2136', 'name:en': 'Gullin Rice'}"
2617,49.2287753,-123.0053832,2017-03-22T04:33:54.000-07:00,fast_food,Takeda Ya Ramen,"{'addr:housenumber': '2137', 'name:en': 'Takeda Ya Ramen'}"
2618,49.228809,-123.0053618,2017-03-22T04:33:56.000-07:00,fast_food,Ba Shu,"{'addr:housenumber': '2138', 'name:en': 'Ba Shu'}"
2631,49.2310583,-123.0061034,2017-03-19T02:36:58.000-07:00,fast_food,Donair Delight,{'name:en': 'Donair Delight'}
2633,49.2310155,-123.0061518,2019-05-29T18:10:20.000-07:00,fast_food,Subway,"{'brand:wikidata': 'Q244457', 'brand:wikipedia': 'en:Subway (restaurant)', 'cuisine': 'sandwich', 'name:en': 'Subway', 'takeaway': 'yes', 'brand': 'Subway'}"
2636,49.1883248,-122.9517415,2019-07-15T03:19:59.000-07:00,fast_food,Subway,"{'brand:wikidata': 'Q244457', 'delivery': 'no', 'brand:wikipedia': 'en:Subway (restaurant)', 'cuisine': 'sandwich', 'name:en': 'Subway', 'takeaway': 'yes', 'brand': 'Subway'}"
2651,49.1916994,-122.9502443,2019-09-23T20:20:53.000-07:00,fast_food,McDonald's,"{'brand:wikidata': 'Q38076', 'brand:wikipedia': ""en:McDonald's"", 'cuisine': 'burger', 'name:en': ""McDonald's"", 'takeaway': 'yes', 'brand': ""McDonald's""}"
2656,49.1912607,-122.9472977,2017-07-10T05:51:49.000-07:00,fast_food,Subway,{'name:en': 'Subway'}
2658,49.1911353,-122.9471654,2017-07-10T05:51:49.000-07:00,fast_food,Opa!,{'name:en': 'Opa!'}
2665,49.1564728,-122.2095408,2020-03-07T07:53:21.000-08:00,fast_food,Sarpino's Pizzeria,"{'brand:wikidata': 'Q28229116', 'brand:wikipedia': ""en:Sarpino's Pizzeria"", 'drive_through': 'yes', 'cuisine': 'pizza', 'takeaway': 'yes', 'brand': ""Sarpino's Pizzeria""}"
2682,49.1868482,-122.8490317,2019-06-25T03:54:28.000-07:00,fast_food,Orange Julius,"{'brand:wikidata': 'Q3355059', 'brand:wikipedia': 'en:Orange Julius', 'cuisine': 'juice', 'name:en': 'Orange Julius', 'takeaway': 'yes', 'brand': 'Orange Julius'}"
2683,49.1871184,-122.8490357,2019-08-24T15:23:01.000-07:00,fast_food,Booster Juice,"{'brand:wikidata': 'Q4943796', 'brand:wikipedia': 'en:Booster Juice', 'cuisine': 'juice', 'name:en': 'Booster Juice', 'takeaway': 'yes', 'brand': 'Booster Juice'}"
2689,49.1868448,-122.8492283,2019-08-24T15:23:01.000-07:00,fast_food,Cultures,"{'brand:wikidata': 'Q64876898', 'cuisine': 'sandwich', 'name:en': 'Cultures', 'takeaway': 'yes', 'brand': 'Cultures'}"
2690,49.1871177,-122.8491133,2019-06-25T03:54:28.000-07:00,fast_food,A&W,"{'brand:wikidata': 'Q2818848', 'brand:wikipedia': 'en:A&W (Canada)', 'cuisine': 'burger', 'name:en': 'A&W', 'takeaway': 'yes', 'brand': 'A&W'}"
2691,49.1871162,-122.8492835,2019-06-25T03:54:28.000-07:00,fast_food,Go Grill,{'name:en': 'Go Grill'}
2692,49.1871155,-122.8493572,2019-06-25T03:54:28.000-07:00,fast_food,Manchu Wok,"{'brand:wikidata': 'Q6747622', 'brand:wikipedia': 'en:Manchu Wok', 'cuisine': 'chinese', 'name:en': 'Manchu Wok', 'takeaway': 'yes', 'brand': 'Manchu Wok'}"
2693,49.187114,-122.849531,2019-06-25T03:54:28.000-07:00,fast_food,Fresh Slice,{'name:en': 'Fresh Slice'}
2694,49.1871697,-122.8497526,2019-06-25T03:09:27.000-07:00,fast_food,Thai Express,{'name:en': 'Thai Express'}
2695,49.1871291,-122.8496029,2019-09-14T10:04:42.000-07:00,fast_food,Quesada,"{'cuisine': 'tex-mex', 'takeaway': 'yes'}"
2696,49.1871919,-122.849834,2019-08-24T15:23:01.000-07:00,fast_food,KFC,"{'brand:wikidata': 'Q524757', 'alt_name': 'Kentucky Fried Chicken', 'brand:wikipedia': 'en:KFC', 'cuisine': 'chicken', 'name:en': 'KFC', 'takeaway': 'yes', 'brand': 'KFC'}"
2702,49.187117,-122.8491994,2019-06-25T03:54:28.000-07:00,fast_food,Toyama Express,{}
2703,49.1871146,-122.8494584,2019-08-29T20:45:23.000-07:00,fast_food,Charleys Philly Steaks,"{'brand:wikidata': 'Q1066777', 'cuisine': 'sandwich', 'takeaway': 'yes', 'brand': 'Charleys Philly Steaks', 'brand:wikipedia': 'en:Charleys Philly Steaks'}"
2704,49.1871485,-122.8496743,2019-06-25T03:09:27.000-07:00,fast_food,Opa!,{'name:en': 'Opa!'}
2705,49.1869648,-122.8498822,2019-08-29T20:45:23.000-07:00,fast_food,Steve's Poké Bar,"{'disused:craft': 'shoemaker', 'cuisine': 'seafood'}"
2706,49.186992,-122.84998,2019-06-25T00:59:54.000-07:00,fast_food,Subway,"{'brand:wikidata': 'Q244457', 'brand:wikipedia': 'en:Subway (restaurant)', 'drive_through': 'no', 'cuisine': 'sandwich', 'name:en': 'Subway', 'takeaway': 'yes', 'brand': 'Subway'}"
2709,49.186768,-122.8499392,2019-06-25T00:59:54.000-07:00,fast_food,Burger King,"{'brand:wikidata': 'Q177054', 'brand:wikipedia': 'en:Burger King', 'cuisine': 'burger', 'name:en': 'Burger King', 'takeaway': 'yes', 'brand': 'Burger King'}"
2712,49.1863136,-122.8480116,2019-08-29T19:49:18.000-07:00,fast_food,Potato Corner,"{'takeaway': 'yes', 'start_date': '2020'}"
2721,49.1886831,-122.802172,2019-08-23T11:23:31.000-07:00,fast_food,Chipotle,"{'brand:wikidata': 'Q465751', 'official_name': 'Chipotle Mexican Grill', 'brand:wikipedia': 'en:Chipotle Mexican Grill', 'cuisine': 'mexican', 'name:en': 'Chipotle', 'takeaway': 'yes', 'brand': 'Chipotle'}"
2740,49.1900326,-122.8023914,2019-08-23T11:23:31.000-07:00,fast_food,Subway,"{'brand:wikidata': 'Q244457', 'brand:wikipedia': 'en:Subway (restaurant)', 'cuisine': 'sandwich', 'name:en': 'Subway', 'takeaway': 'yes', 'brand': 'Subway'}"
2821,49.2811945,-123.0125396,2016-03-01T16:57:22.000-08:00,fast_food,Subway,{'cuisine': 'sandwich'}
2822,49.0519086,-122.3094082,2016-03-02T06:58:16.000-08:00,fast_food,McDonald's Drive-Thru,"{'opening_hours': '24/7', 'cuisine': 'burger', 'website': 'http://www.mcdonalds.ca', 'drive_through': 'yes'}"
2861,49.2764887,-123.1189668,2019-08-29T17:37:11.000-07:00,fast_food,Subway,"{'brand:wikidata': 'Q244457', 'addr:housenumber': '1000', 'brand:wikipedia': 'en:Subway (restaurant)', 'opening_hours': '24/7', 'cuisine': 'sandwich', 'name:en': 'Subway', 'addr:street': 'Mainland Street', 'takeaway': 'yes', 'brand': 'Subway'}"
2867,49.1924274,-123.0910446,2010-02-09T21:07:39.000-08:00,fast_food,Triple O's,{'cuisine': 'regional'}
2887,49.1775615,-123.1222328,2020-04-17T21:26:32.000-07:00,fast_food,Subway,"{'brand:wikidata': 'Q244457', 'addr:housenumber': '1530-4777', 'brand:wikipedia': 'en:Subway (restaurant)', 'cuisine': 'sandwich', 'addr:street': 'McClelland Road', 'takeaway': 'yes', 'brand': 'Subway', 'addr:city': 'Richmond'}"
2891,49.1784718,-123.121091,2020-04-17T21:26:32.000-07:00,fast_food,Freshslice,"{'addr:housenumber': '1720-4700', 'addr:street': 'McClelland Road', 'addr:city': 'Richmond'}"
2892,49.1783944,-123.1210954,2020-04-17T21:26:32.000-07:00,fast_food,Fatburger,"{'addr:housenumber': '1725-4700', 'addr:street': 'McClelland Road', 'addr:city': 'Richmond'}"
2893,49.1781724,-123.1211081,2020-04-17T21:26:32.000-07:00,fast_food,Burger King,"{'brand:wikidata': 'Q177054', 'addr:housenumber': '1805-4720', 'brand:wikipedia': 'en:Burger King', 'cuisine': 'burger', 'addr:street': 'McClelland Road', 'takeaway': 'yes', 'brand': 'Burger King', 'addr:city': 'Richmond'}"
2932,49.1687064,-123.1355348,2019-09-13T13:57:03.000-07:00,fast_food,Freshslice Pizza,"{'addr:housenumber': '120-8010', 'addr:street': 'Saba Road', 'addr:city': 'Richmond'}"
2945,49.3277823,-123.139609,2019-06-08T20:08:26.000-07:00,fast_food,Chipotle,"{'brand:wikidata': 'Q465751', 'official_name': 'Chipotle Mexican Grill', 'brand:wikipedia': 'en:Chipotle Mexican Grill', 'drive_through': 'no', 'opening_hours': '10:45-10:00', 'cuisine': 'mexican', 'outdoor_seating': 'yes', 'takeaway': 'yes', 'brand': 'Chipotle'}"
2946,49.3262061,-123.1361153,2019-10-29T17:29:30.000-07:00,fast_food,Five Guys,"{'brand:wikidata': 'Q1131810', 'official_name': 'Five Guys Burgers and Fries', 'wheelchair': 'yes', 'addr:housenumber': '728', 'level': '0', 'brand:wikipedia': 'en:Five Guys', 'cuisine': 'burger', 'outdoor_seating': 'yes', 'addr:street': 'Main Street', 'takeaway': 'yes', 'brand': 'Five Guys'}"
2948,49.1909246,-122.8908844,2016-11-26T20:27:08.000-08:00,fast_food,Burger King,"{'cuisine': 'burger', 'drive_through': 'yes'}"
2949,49.1909164,-122.8910492,2016-11-26T20:27:09.000-08:00,fast_food,Quiznos Sub,{'cuisine': 'sandwich'}
3014,49.1810752,-123.1354747,2018-02-09T05:00:20.000-08:00,fast_food,James Snacks,"{'opening_hours': 'Mo-Sa 11:00-19:30', 'name:en': 'James Snacks', 'phone': '+1-604-716-1328', 'name:zh_pinyin': '佔士叻煲仔飯'}"
3015,49.2898216,-123.1332015,2017-02-19T22:32:37.000-08:00,fast_food,Book Kyung Ban Jeoun & BK Karaoke,"{'opening_hours': 'Su-Th 11:30-01:00; Fr-Sa 11:30-02:00', 'addr:housenumber': '1638', 'name:en': 'Book Kyung Ban Jeoun & BK Karaoke', 'addr:street': 'Robson Street'}"
3029,49.2807848,-123.124856,2019-09-13T13:57:00.000-07:00,fast_food,The Alley,"{'addr:housenumber': '985', 'drive_through': 'no', 'cuisine': 'bubble_tea', 'addr:street': 'Hornby Street', 'addr:postcode': 'V6Z 1V3', 'addr:city': 'Vancouver'}"
3037,49.2605857,-122.8892018,2020-01-29T18:38:37.000-08:00,fast_food,Panago,"{'brand:wikidata': 'Q17111672', 'brand:wikipedia': 'en:Panago', 'cuisine': 'pizza', 'name:en': 'Panago', 'takeaway': 'yes', 'brand': 'Panago'}"
3045,49.2542287,-122.893754,2017-02-22T03:20:30.000-08:00,fast_food,Donair Ville & Cafe,{'name:en': 'Donair Ville & Cafe'}
3091,49.2716748,-123.0947341,2020-06-11T20:24:10.000-07:00,fast_food,Subway,"{'brand:wikidata': 'Q244457', 'addr:housenumber': '428', 'brand:wikipedia': 'en:Subway (restaurant)', 'cuisine': 'sandwich', 'addr:street': 'Terminal Avenue', 'takeaway': 'yes', 'brand': 'Subway', 'addr:city': 'Vancouver'}"
3092,49.2717323,-123.0948814,2020-06-11T20:24:10.000-07:00,fast_food,Taco Del Mar,"{'brand:wikidata': 'Q7673972', 'addr:housenumber': '420', 'brand:wikipedia': 'en:Taco del Mar', 'cuisine': 'mexican', 'addr:street': 'Terminal Avenue', 'takeaway': 'yes', 'brand': 'Taco Del Mar', 'addr:city': 'Vancouver'}"
3095,49.3237469,-123.1108931,2019-09-13T13:57:03.000-07:00,fast_food,Quiznos,"{'brand:wikidata': 'Q1936229', 'addr:housenumber': '1303', 'brand:wikipedia': 'en:Quiznos', 'cuisine': 'sandwich', 'addr:street': 'Marine Drive', 'takeaway': 'yes', 'brand': 'Quiznos', 'addr:city': 'District of North Vancouver'}"
3103,49.3233157,-123.1139545,2019-09-13T13:57:03.000-07:00,fast_food,MOOYAH,"{'addr:housenumber': '1431', 'addr:street': 'Marine Drive', 'addr:city': 'District of North Vancouver'}"
3169,49.0475644,-122.3443764,2018-06-20T15:12:30.000-07:00,fast_food,Tim Hortons Drive Thru,"{'ref': 'Restaurant #106400', 'phone': '+1-604-853-0085', 'drive_through': 'yes'}"
3195,49.2208148,-123.0656937,2018-06-20T15:11:50.000-07:00,fast_food,Paragon Pizza,"{'addr:housenumber': '6942', 'addr:street': 'Victoria Drive', 'phone': '+1-604-325-3500', 'addr:postcode': 'V5P 3Y8', 'addr:city': 'Vancouver'}"
3210,49.1808304,-123.1341778,2017-07-14T12:45:12.000-07:00,fast_food,敘香園,{'name:en': '敘香園'}
3220,49.2372522,-123.0325583,2019-09-13T13:57:02.000-07:00,fast_food,Subway,"{'brand:wikidata': 'Q244457', 'addr:housenumber': '5218', 'brand:wikipedia': 'en:Subway (restaurant)', 'cuisine': 'sandwich', 'addr:street': 'Joyce Street', 'takeaway': 'yes', 'brand': 'Subway', 'addr:city': 'Vancouver'}"
3230,49.2656756,-123.0044104,2019-09-13T13:57:02.000-07:00,fast_food,Uncle Faith's Pizza,"{'addr:housenumber': '2-4465', 'addr:street': 'Skyline Drive', 'addr:city': 'Burnaby'}"
3231,49.2637503,-123.0242122,2019-09-13T13:57:02.000-07:00,fast_food,Subway,"{'cuisine': 'sandwich', 'addr:housenumber': '2323', 'addr:street': 'Boundary Road', 'addr:city': 'Vancouver'}"
3235,49.2545259,-123.0213204,2019-10-29T17:29:00.000-07:00,fast_food,Subway,"{'brand:wikidata': 'Q244457', 'addr:housenumber': '101-3790', 'brand:wikipedia': 'en:Subway (restaurant)', 'cuisine': 'sandwich', 'addr:street': 'Canada Way', 'takeaway': 'yes', 'brand': 'Subway', 'addr:city': 'Burnaby'}"
3267,49.2833353,-123.1174336,2019-11-25T23:13:55.000-08:00,fast_food,Opa! Of Greece,"{'cuisine': 'greek', 'drive_through': 'no', 'addr:city': 'Vancouver'}"
3281,49.2308106,-123.0908083,2019-04-05T08:40:30.000-07:00,fast_food,Little Caesars,"{'brand:wikidata': 'Q1393809', 'addr:housenumber': '5927', 'website': 'https://littlecaesars.ca/', 'brand:wikipedia': 'en:Little Caesars', 'cuisine': 'pizza', 'addr:street': 'Fraser Street', 'brand': 'Little Caesars'}"
3284,49.2335124,-122.8624542,2019-04-01T19:47:21.000-07:00,fast_food,McDonald's,"{'brand:wikidata': 'Q38076', 'cuisine': 'burger', 'website': 'http://www.mcdonalds.ca/', 'brand': ""McDonald's"", 'brand:wikipedia': ""en:McDonald's""}"
3286,49.2718554,-122.8764461,2017-02-23T18:17:19.000-08:00,fast_food,Mega Donair,{'name:en': 'Mega Donair'}
3314,49.2740786,-123.1213858,2019-08-29T17:39:49.000-07:00,fast_food,Loving Hut Express food van,"{'opening_hours': 'Th-Sa 11:00-16:30', 'name:en': 'Loving Hut Express food van', 'addr:street': 'Davie Street', 'diet:vegan': 'yes'}"
3317,49.3737497,-123.2741383,2018-10-26T20:30:52.000-07:00,fast_food,Bay Sushi,"{'addr:housenumber': '6371', 'phone': '+1-604-913-8973', 'opening_hours': 'We-Mo 12:00-19:30', 'name:en': 'Bay Sushi', 'addr:street': 'Bruce Street', 'addr:postcode': 'V7W 2G4'}"
3318,49.3741257,-123.2747392,2017-04-02T19:06:51.000-07:00,fast_food,Berry's,"{'addr:housenumber': '6685', 'name:en': ""Berry's"", 'addr:street': 'Royal Avenue'}"
3363,49.1709566,-123.1815568,2016-10-08T21:03:10.000-07:00,fast_food,Church's Chicken,"{'wheelchair': 'yes', 'addr:housenumber': '3675', 'drive_through': 'no', 'addr:street': 'Westminster Highway', 'drive_in': 'no', 'addr:city': 'Richmond'}"
3455,49.2772057,-123.1265215,2019-09-18T23:00:49.000-07:00,fast_food,Numero Uno Pizza,"{'addr:housenumber': '708', 'addr:street': 'Davie Street', 'addr:city': 'Vancouver'}"
3467,49.277516,-123.1270838,2017-09-17T19:14:05.000-07:00,fast_food,Sushi Howe,"{'opening_hours': 'Mo-Su 11:30-22:00', 'cuisine': 'sushi', 'addr:housenumber': '738', 'addr:street': 'Davie Street'}"
3480,49.2801553,-123.1209311,2020-02-09T21:09:23.000-08:00,fast_food,Pizza Garden,"{'addr:housenumber': '675', 'website': 'https://www.pizzagarden.ca', 'phone': '+1-604-669-6656', 'drive_through': 'no', 'opening_hours': 'Su 11:00-23:00; Mo-Th 11:00-00:00; Fr, Sa 11:00-03:00', 'cuisine': 'pizza', 'addr:street': 'Smithe Street', 'payment:debit_cards': 'yes', 'takeaway': 'yes', 'addr:city': 'Vancouver'}"
3483,49.2794471,-123.1300198,2015-09-16T18:51:50.000-07:00,fast_food,Donair King,"{'addr:housenumber': '1028', 'addr:street': 'Davie Street'}"
3488,49.0494651,-122.2597961,2019-09-02T22:08:25.000-07:00,fast_food,Domino's Pizza,"{'alt_name': 'Dominos Pizza', 'website': 'https://order.dominos.ca/en/pages/seo-store-locator.jsp?code=BC&fromMenuJSP=X2&customerStreet=&customerCity=Abbotsford&customerState=British+Columbia&Postal_Code=V3G1C4', 'ref': '10025', 'phone': '+1-604-864-0202', 'opening_hours': 'Su-Th 11:00-00:00; Fr-Sa 11:00-02:00', 'cuisine': 'pizza', 'addr:unit': '104'}"
3490,49.0496898,-122.2598023,2019-09-02T22:08:25.000-07:00,fast_food,Subway,"{'website': 'http://w.subway.com/en-ca/findastore?zip=V3G1C4', 'ref': '38094', 'phone': '+1-604-850-1690', 'opening_hours': 'Mo-Fr 07:00-22:00; Sa-Su 08:00-22:00', 'cuisine': 'sandwich', 'addr:unit': '108'}"
3498,49.2222713,-122.9315099,2015-09-17T07:24:56.000-07:00,fast_food,Scott Hill Pizza,"{'cuisine': 'pizza', 'addr:housenumber': '7630', 'addr:street': '6th Street'}"
3501,49.2228162,-122.9326769,2018-12-08T14:55:34.000-08:00,fast_food,Pizza Grill,{'cuisine': 'pizza'}
3507,49.2802263,-123.1307093,2019-09-18T23:00:49.000-07:00,fast_food,Fat Burger,"{'cuisine': 'burger', 'addr:housenumber': '1067', 'addr:street': 'Davie Street', 'drive_through': 'no', 'addr:city': 'Vancouver'}"
3513,49.057156,-122.2740055,2019-09-28T16:10:55.000-07:00,fast_food,Panago,"{'brand:wikidata': 'Q17111672', 'website': 'https://panago.com/', 'phone': '+1-604-310-0001', 'brand:wikipedia': 'en:Panago', 'opening_hours': 'Su-Th,PH 11:00-00:00; Fr-Sa 11:00-01:00', 'cuisine': 'pizza', 'takeaway': 'yes', 'brand': 'Panago', 'addr:unit': '510'}"
3515,49.1917192,-123.1118564,2018-06-20T15:11:27.000-07:00,fast_food,A&W,"{'delivery': 'no', 'addr:housenumber': '100-3080', 'phone': '+1-604-214-9901', 'drive_through': 'yes', 'cuisine': 'burger', 'addr:street': 'Saint Edwards Drive', 'addr:postcode': 'V6X 4C4', 'takeaway': 'yes', 'addr:city': 'Richmond'}"
3528,49.2584009,-122.9555106,2019-09-02T22:08:26.000-07:00,fast_food,Subway,"{'brand:wikidata': 'Q244457', 'addr:housenumber': '101-2900', 'phone': '+1-604-420-7822', 'brand:wikipedia': 'en:Subway (restaurant)', 'opening_hours': 'Mo-Fr 07:00-00:00; Sa 08:00-00:00; Su 09:00-23:00', 'cuisine': 'sandwich', 'addr:street': 'Bainbridge Avenue', 'addr:postcode': 'V5A 2S8', 'takeaway': 'yes', 'brand': 'Subway', 'addr:city': 'Burnaby'}"
3578,49.0466415,-122.368639,2016-12-24T17:13:23.000-08:00,fast_food,Coasters Express,"{'opening_hours': '09:30-10:00', 'website': 'http://www.playtimegaming.ca/abbotsford-dining'}"
3629,49.1848537,-122.7988686,2019-02-24T16:44:28.000-08:00,fast_food,Chan's Kitchen,"{'cuisine': 'chinese', 'indoor': 'room', 'addr:unit': '101b'}"
3630,49.1846812,-122.7987992,2019-02-24T16:44:29.000-08:00,fast_food,Rodem Korea,"{'cuisine': 'korean', 'indoor': 'room', 'addr:unit': '101f'}"
3637,49.1847568,-122.7988014,2019-02-24T16:44:29.000-08:00,fast_food,Kwan Kee Noodle House,"{'cuisine': 'chinese', 'indoor': 'room', 'addr:unit': '101d'}"
3638,49.1847167,-122.7988016,2019-02-24T16:44:28.000-08:00,fast_food,YL's Curry Bowl,"{'cuisine': 'chinese', 'indoor': 'room', 'addr:unit': '101e'}"
3642,49.1848038,-122.7988004,2019-02-24T16:44:28.000-08:00,fast_food,Sashimi & Sushi Express,"{'cuisine': 'sushi', 'indoor': 'room', 'addr:unit': '101c'}"
3716,49.1047695,-122.8042283,2019-09-23T20:08:40.000-07:00,fast_food,McDonald's,"{'brand:wikidata': 'Q38076', 'addr:housenumber': '15145', 'internet_access': 'wlan', 'brand:wikipedia': ""en:McDonald's"", 'cuisine': 'burger', 'name:en': ""McDonald's"", 'addr:street': 'Highway 10', 'takeaway': 'yes', 'brand': ""McDonald's""}"
3718,49.1985744,-122.8347803,2018-08-14T11:42:37.000-07:00,fast_food,Pizza Nation,"{'addr:housenumber': '13980', 'website': 'http://pizzanationsurrey.com/', 'phone': '+1-604-588-5550', 'opening_hours': 'Mo-Th 11:00-23:00; Fr-Sa 11:00-00:00; Su 12:00-23:00', 'cuisine': 'pizza', 'name:en': 'Pizza Nation', 'addr:street': '108 Avenue'}"
3721,49.1990463,-122.8132449,2017-02-11T16:57:34.000-08:00,fast_food,Texx Big Burger,"{'addr:housenumber': '14783', 'website': 'https://m.facebook.com/Texx-Big-Burger-197302373717702/', 'phone': '+1-604-588-0093', 'opening_hours': 'Mo-Su 11:00-22:00', 'cuisine': 'burger', 'name:en': 'Texx Big Burger', 'addr:street': '108 Avenue'}"
3723,49.2273867,-122.9997206,2019-06-17T23:21:22.000-07:00,fast_food,McDonald's,"{'brand:wikidata': 'Q38076', 'wheelchair': 'yes', 'delivery': 'no', 'website': 'http://www.mcdonalds.ca/', 'level': '0', 'brand:wikipedia': ""en:McDonald's"", 'cuisine': 'burger', 'takeaway': 'yes', 'addr:housenumber': '4700', 'phone': '+1-604-718-1005', 'drive_through': 'no', 'smoking': 'no', 'opening_hours': '24/7', 'addr:street': 'Kingsway', 'brand': ""McDonald's""}"
3731,49.1766197,-122.8015928,2020-06-20T09:22:50.000-07:00,fast_food,Subway,"{'brand:wikidata': 'Q244457', 'cuisine': 'sandwich', 'takeaway': 'yes', 'brand': 'Subway', 'brand:wikipedia': 'en:Subway (restaurant)'}"
3752,49.0659014,-122.3807911,2019-09-02T22:08:25.000-07:00,fast_food,Pizza24,"{'website': 'http://www.pizza24.ca', 'phone': '+1-604-746-5100', 'drive_through': 'yes', 'opening_hours': 'Mo-Fr 10:30-02:00; Sa-Su 10:30-03:00', 'description': 'Gas Station location', 'cuisine': 'pizza'}"
3774,49.0466441,-122.3372747,2018-06-20T15:11:22.000-07:00,fast_food,Pizza24,"{'description': 'Clearbrook location', 'cuisine': 'pizza', 'website': 'http://pizza24.ca', 'phone': '+1-604-746-6000', 'addr:unit': '101'}"
3811,49.2871644,-123.1197099,2019-07-14T20:19:12.000-07:00,fast_food,Quiznos,"{'brand:wikidata': 'Q1936229', 'cuisine': 'sandwich', 'takeaway': 'yes', 'brand': 'Quiznos', 'brand:wikipedia': 'en:Quiznos'}"
3813,49.3329498,-123.0884842,2019-09-12T16:33:25.000-07:00,fast_food,McDonald's,"{'brand:wikidata': 'Q38076', 'cuisine': 'burger', 'takeaway': 'yes', 'brand': ""McDonald's"", 'brand:wikipedia': ""en:McDonald's""}"
3814,49.333008,-123.0884842,2018-08-17T00:22:40.000-07:00,fast_food,Fresh Slice,{'cuisine': 'pizza'}
3832,49.2311162,-123.0904218,2018-08-19T16:42:11.000-07:00,fast_food,Tim Hortons,{}
3839,49.2263872,-123.0042373,2019-06-17T23:21:22.000-07:00,fast_food,Subway,"{'brand:wikidata': 'Q244457', 'brand:wikipedia': 'en:Subway (restaurant)', 'cuisine': 'sandwich', 'name:en': 'Subway', 'takeaway': 'yes', 'brand': 'Subway'}"
3861,49.2260065,-123.0023569,2019-06-17T23:21:22.000-07:00,fast_food,Chipotle,"{'brand:wikidata': 'Q465751', 'official_name': 'Chipotle Mexican Grill', 'level': '1', 'brand:wikipedia': 'en:Chipotle Mexican Grill', 'cuisine': 'mexican', 'name:en': 'Chipotle Mexican Grill', 'takeaway': 'yes', 'brand': 'Chipotle'}"
3863,49.2257698,-122.9969729,2019-08-24T15:19:56.000-07:00,fast_food,Booster Juice,"{'brand:wikidata': 'Q4943796', 'level': '0', 'brand:wikipedia': 'en:Booster Juice', 'cuisine': 'juice', 'name:en': 'Booster Juice', 'takeaway': 'yes', 'brand': 'Booster Juice'}"
3876,49.2434728,-123.0621724,2019-09-27T12:19:02.000-07:00,fast_food,KFC,"{'brand:wikidata': 'Q524757', 'alt_name': 'Kentucky Fried Chicken', 'brand:wikipedia': 'en:KFC', 'cuisine': 'chicken', 'takeaway': 'yes', 'brand': 'KFC'}"
3887,49.2581579,-123.1009455,2014-06-26T07:05:17.000-07:00,fast_food,Papa's Gourmet Pizza,"{'addr:housenumber': '3030', 'addr:street': 'Main Street', 'addr:city': 'Vancouver'}"
3894,49.2325226,-123.090106,2016-12-07T01:27:30.000-08:00,fast_food,Church's Chicken,"{'addr:housenumber': '5704', 'website': 'http://www.churchschickenbc.ca/index.php?option=com_sobi2&sobi2Task=sobi2Details&sobi2Id=16&Itemid=64', 'addr:street': 'Fraser Street'}"
3909,49.2792588,-123.1074257,2016-01-07T05:11:11.000-08:00,fast_food,Uncle Fatih's Pizza,"{'opening_hours': 'Mo 10:30-14:00; Tu-Th 10:30-01:00; Fr 10:30-03:00; Sa 12:00-03:00; Su 12:00-24:00', 'addr:housenumber': '638', 'addr:street': 'Abbott Street'}"
3910,49.2793502,-123.1078358,2018-03-14T01:08:19.000-07:00,fast_food,Freshslice,"{'opening_hours': 'Su-Th 11:00-23:00; Fr-Sa 11:00-00:00', 'cuisine': 'pizza', 'addr:housenumber': '663', 'addr:street': 'Abbott Street', 'addr:city': 'Vancouver'}"
3911,49.2791132,-123.1074224,2019-05-04T04:43:00.000-07:00,fast_food,Something Healthy,"{'opening_hours': 'Mo-Fr 09:00-20:00; Sa 11:00-19:00; Su 11:00-18:00', 'addr:housenumber': '660', 'addr:street': 'Abbott Street'}"
3919,49.2284031,-123.0908169,2019-11-07T19:56:30.000-08:00,fast_food,Subway,"{'brand:wikidata': 'Q244457', 'addr:housenumber': '6191', 'brand:wikipedia': 'en:Subway (restaurant)', 'cuisine': 'sandwich', 'addr:street': 'Fraser Street', 'takeaway': 'yes', 'brand': 'Subway'}"
3925,49.2808303,-123.045249,2015-07-22T02:57:30.000-07:00,fast_food,Dijo's Pizza,"{'delivery': 'yes', 'cuisine': 'pizza', 'takeaway': 'yes', 'drive_through': 'no'}"
3927,49.2808213,-123.0457204,2019-10-31T23:04:22.000-07:00,fast_food,Subway,"{'brand:wikidata': 'Q244457', 'cuisine': 'sandwich', 'takeaway': 'yes', 'brand': 'Subway', 'brand:wikipedia': 'en:Subway (restaurant)'}"
3935,49.1913787,-122.8449032,2019-08-24T15:23:01.000-07:00,fast_food,Subway,"{'brand:wikidata': 'Q244457', 'addr:housenumber': '10392', 'website': 'http://www.subway.com/', 'phone': '+1-604-580-2554', 'brand:wikipedia': 'en:Subway (restaurant)', 'opening_hours': 'Mo-Fr 07:00-00:00; Sa-Su 08:00-00:00', 'cuisine': 'sandwich', 'addr:street': 'King George Boulevard', 'takeaway': 'yes', 'brand': 'Subway'}"
3937,49.0611385,-122.3807955,2019-09-25T14:47:27.000-07:00,fast_food,McDonald's,"{'brand:wikidata': 'Q38076', 'website': 'http://www.mcdonalds.ca', 'internet_access': 'wlan', 'brand:wikipedia': ""en:McDonald's"", 'drive_through': 'yes', 'internet_access:fee': 'no', 'opening_hours': '05:00-01:00', 'cuisine': 'burger', 'takeaway': 'yes', 'brand': ""McDonald's"", 'addr:unit': '100'}"
3938,49.0612765,-122.380797,2019-09-25T14:47:27.000-07:00,fast_food,Panago,"{'brand:wikidata': 'Q17111672', 'brand:wikipedia': 'en:Panago', 'opening_hours': 'Su-Th 11:00-00:00; Fr-Sa 11:00-01:00', 'cuisine': 'pizza', 'takeaway': 'yes', 'brand': 'Panago', 'addr:unit': '101'}"
3939,49.0612017,-122.379992,2020-05-21T17:45:33.000-07:00,fast_food,Quesada,"{'brand:wikidata': 'Q66070360', 'official_name': 'Quesada Burritos & Tacos', 'cuisine': 'mexican', 'takeaway': 'yes', 'brand': 'Quesada', 'addr:unit': '110'}"
3947,49.0609014,-122.3803606,2019-01-16T16:20:56.000-08:00,fast_food,Quiznos Sub,"{'opening_hours': 'Mo-Fr 10:30-21:00; Sa,Su 11:00-21:00', 'cuisine': 'sandwich', 'addr:unit': '101'}"
3976,49.2195297,-123.0408142,2019-08-11T00:05:00.000-07:00,fast_food,Little Caesars,"{'brand:wikidata': 'Q1393809', 'cuisine': 'pizza', 'takeaway': 'yes', 'brand': 'Little Caesars', 'brand:wikipedia': 'en:Little Caesars'}"
4000,49.2308376,-122.906467,2018-10-26T20:30:05.000-07:00,fast_food,Pizza Pizzria,"{'cuisine': 'pizza', 'addr:housenumber': '8679', 'addr:street': 'Tenth Avenue', 'phone': '+1-604-549-0049', 'addr:city': 'Burnaby'}"
4003,49.2230001,-122.9139689,2012-05-02T21:02:10.000-07:00,fast_food,Subway,"{'cuisine': 'sandwich', 'website': 'http://www.subway.com/', 'brand': 'Subway'}"
4016,49.2588554,-122.7905574,2012-05-07T06:30:17.000-07:00,fast_food,Pajo's,{'cuisine': 'fish_and_chips'}
4053,49.1599802,-122.401675,2019-09-02T22:08:26.000-07:00,fast_food,Subway,"{'opening_hours': 'Mo-Fr 07:00-22:00; Sa,Su 08:00-22:00', 'cuisine': 'sandwich', 'addr:housenumber': '29677', 'addr:street': 'Lougheed Highway'}"
4058,49.2185492,-122.953863,2020-06-10T22:45:13.000-07:00,fast_food,Pizza Art,"{'addr:province': 'BC', 'cuisine': 'pizza', 'addr:housenumber': '7239', 'addr:street': 'Kingsway', 'addr:city': 'Burnaby'}"
4062,49.262628,-123.0874661,2019-08-02T02:24:13.000-07:00,fast_food,KFC,"{'brand:wikidata': 'Q524757', 'alt_name': 'Kentucky Fried Chicken', 'brand:wikipedia': 'en:KFC', 'cuisine': 'chicken', 'name:en': 'KFC', 'takeaway': 'yes', 'brand': 'KFC'}"
4089,49.2723618,-123.0693179,2017-10-06T22:06:19.000-07:00,fast_food,Rosemary Bagels,"{'cuisine': 'sandwich', 'addr:housenumber': '1350', 'addr:street': 'Commercial Drive'}"
4098,49.0910917,-122.6076471,2019-11-20T12:41:36.000-08:00,fast_food,A&W,"{'brand:wikidata': 'Q2818848', 'addr:housenumber': '22259', 'brand:wikipedia': 'en:A&W (Canada)', 'cuisine': 'burger', 'addr:street': '48 Avenue', 'addr:postcode': 'V3A 3N4', 'takeaway': 'yes', 'brand': 'A&W', 'addr:unit': '302', 'addr:city': 'Langley'}"
4108,49.15468,-123.158142,2019-09-10T18:50:44.000-07:00,fast_food,Coco 都可 Bubble Tea,{'cuisine': 'bubble_tea'}
4142,49.2209307,-122.6001604,2019-09-13T13:57:02.000-07:00,fast_food,Panago Pizza,"{'addr:housenumber': '124-22441', 'addr:street': 'Dewdney Trunk Road', 'addr:city': 'Maple Ridge'}"
4148,49.2191699,-122.6587425,2019-09-13T13:57:02.000-07:00,fast_food,Burger King,"{'cuisine': 'burger', 'addr:housenumber': '20290', 'addr:street': 'Lougheed Highway', 'addr:city': 'Maple Ridge'}"
4149,49.2185304,-122.6541708,2020-04-09T20:55:07.000-07:00,fast_food,Carl's Jr.,"{'cuisine': 'burger', 'addr:housenumber': '20468', 'addr:street': 'Lougheed Highway', 'drive_through': 'yes', 'addr:city': 'Maple Ridge'}"
4151,49.2183839,-122.6534671,2019-09-13T13:57:02.000-07:00,fast_food,Dairy Queen,"{'addr:housenumber': '20492', 'addr:street': 'Lougheed Highway', 'addr:city': 'Maple Ridge'}"
4162,49.2172304,-122.606536,2019-09-24T15:53:15.000-07:00,fast_food,KFC,"{'brand:wikidata': 'Q524757', 'addr:housenumber': '22219', 'alt_name': 'Kentucky Fried Chicken', 'brand:wikipedia': 'en:KFC', 'cuisine': 'chicken', 'addr:street': 'Lougheed Highway', 'takeaway': 'yes', 'brand': 'KFC', 'addr:city': 'Maple Ridge'}"
4163,49.2171362,-122.6064892,2019-09-24T15:53:15.000-07:00,fast_food,Taco Bell,"{'brand:wikidata': 'Q752941', 'addr:housenumber': '22219', 'brand:wikipedia': 'en:Taco Bell', 'cuisine': 'tex-mex', 'addr:street': 'Lougheed Highway', 'takeaway': 'yes', 'brand': 'Taco Bell', 'addr:city': 'Maple Ridge'}"
4166,49.2163595,-122.6049356,2019-09-13T13:57:02.000-07:00,fast_food,Triple O's,"{'addr:housenumber': '22284', 'addr:street': 'Lougheed Highway', 'addr:city': 'Maple Ridge'}"
4169,49.2199383,-122.6019137,2020-04-24T01:43:05.000-07:00,fast_food,Subway,"{'brand:wikidata': 'Q244457', 'addr:housenumber': '11969', 'brand:wikipedia': 'en:Subway (restaurant)', 'cuisine': 'sandwich', 'addr:street': '224 Street', 'takeaway': 'yes', 'brand': 'Subway', 'addr:city': 'Maple Ridge'}"
4179,49.2208584,-122.5876685,2019-09-13T13:57:03.000-07:00,fast_food,Brownies Chicken & Seafood,"{'addr:housenumber': '22899', 'addr:street': 'Dewdney Trunk Road', 'addr:city': 'Maple Ridge'}"
4185,49.2205909,-122.5575978,2019-09-25T20:00:10.000-07:00,fast_food,Subway,"{'brand:wikidata': 'Q244457', 'addr:housenumber': '23981', 'brand:wikipedia': 'en:Subway (restaurant)', 'cuisine': 'sandwich', 'addr:street': 'Dewdney Trunk Road', 'takeaway': 'yes', 'brand': 'Subway', 'addr:city': 'Maple Ridge'}"
4209,49.1039632,-122.6505489,2019-09-13T13:57:03.000-07:00,fast_food,Hot Spot Pizza,"{'addr:housenumber': '101-20631', 'addr:street': 'Fraser Highway', 'addr:city': 'Langley'}"
4214,49.1050087,-122.6598889,2019-09-13T13:57:03.000-07:00,fast_food,Dairy Queen,"{'brand:wikidata': 'Q1141226', 'addr:housenumber': '20300', 'brand:wikipedia': 'en:Dairy Queen', 'cuisine': 'ice_cream;burger', 'addr:street': 'Fraser Highway', 'takeaway': 'yes', 'brand': 'Dairy Queen', 'addr:city': 'Langley'}"
4215,49.1051536,-122.6594585,2020-01-07T16:39:13.000-08:00,fast_food,Robin's Donuts,"{'brand:wikidata': 'Q7352199', 'addr:housenumber': '301-20300', 'brand:wikipedia': ""en:Robin's Donuts"", 'cuisine': 'donut', 'short_name': ""Robin's"", 'addr:street': 'Fraser Highway', 'takeaway': 'yes', 'brand': ""Robin's Donuts"", 'addr:city': 'Langley'}"
4270,49.1809803,-123.1348283,2018-02-09T05:00:17.000-08:00,fast_food,Lai Leung,"{'opening_hours': 'Fr-We 10:30-19:00', 'cuisine': 'chinese', 'name:en': 'Lai Leung', 'phone': '+1-604-247-8893', 'name:zh_pinyin': '梨良記牛雜蛇羹專家'}"
4272,49.1262429,-123.1844405,2019-09-02T22:08:26.000-07:00,fast_food,Ichiro Japanese Restaurant,"{'addr:housenumber': '#110-12011', 'phone': '+1-604-277-1150', 'opening_hours': 'Mo-Su 11:30-14:30,17:00-22:00', 'name:en': 'Ichiro Japanese Restaurant', 'addr:street': '2nd Avenue', 'name:zh_pinyin': '一郎亭'}"
4273,49.1945973,-122.8457067,2019-09-27T12:21:38.000-07:00,fast_food,KFC,"{'brand:wikidata': 'Q524757', 'website': 'https://www.kfc.ca/', 'brand:wikipedia': 'en:KFC', 'cuisine': 'chicken', 'takeaway': 'yes', 'addr:housenumber': '10565', 'alt_name': 'Kentucky Fried Chicken', 'phone': '+1-604-581-5495', 'opening_hours': 'Mo-Su 11:00-22:00', 'name:en': 'KFC', 'addr:street': 'King George Boulevard', 'brand': 'KFC'}"
4274,49.1942617,-122.8447996,2017-01-27T06:56:34.000-08:00,fast_food,Church's Chicken,"{'addr:housenumber': '10542', 'website': 'http://www.churchschickenbc.ca/', 'phone': '+1-604-588-2252', 'opening_hours': '24/7', 'cuisine': 'chicken', 'name:en': ""Church's Chicken"", 'addr:street': 'King George Boulevard'}"
4284,49.2094689,-123.1164992,2019-05-29T17:42:02.000-07:00,fast_food,Subway,"{'brand:wikidata': 'Q244457', 'cuisine': 'sandwich', 'takeaway': 'yes', 'brand': 'Subway', 'brand:wikipedia': 'en:Subway (restaurant)'}"
4322,49.2228133,-122.9835929,2019-07-02T01:21:58.000-07:00,fast_food,Little Caesars,"{'brand:wikidata': 'Q1393809', 'addr:housenumber': '6681', 'brand:wikipedia': 'en:Little Caesars', 'cuisine': 'pizza', 'addr:street': 'MacPherson Ave', 'addr:postcode': 'V5H 3Z6', 'takeaway': 'yes', 'brand': 'Little Caesars'}"
4327,49.2280822,-122.9978351,2019-07-05T05:09:00.000-07:00,fast_food,Subway,"{'brand:wikidata': 'Q244457', 'addr:housenumber': '4747', 'website': 'https://www.subway.com/en-ca/', 'brand:wikipedia': 'en:Subway (restaurant)', 'cuisine': 'sandwich', 'addr:street': 'Kingsway', 'addr:postcode': 'V5H 2C3', 'takeaway': 'yes', 'brand': 'Subway'}"
4330,49.2769818,-122.8550108,2016-02-12T09:20:47.000-08:00,fast_food,A&W,{}
4336,49.125729,-123.0926925,2010-05-15T07:07:23.000-07:00,fast_food,Que Pasa,{'url': 'http://www.quepasafoods.com/store.htm'}
4398,49.1343893,-122.839424,2019-09-25T05:19:22.000-07:00,fast_food,Canadian 2 for 1 Pizza,"{'opening_hours': 'Mo-Su 15:00-00:00', 'cuisine': 'pizza', 'name:en': 'Canadian 2 for 1 Pizza', 'phone': '+1-604-599-5669'}"
4426,49.1238444,-123.1842621,2018-02-05T14:46:55.000-08:00,fast_food,The Village Burgery,"{'addr:housenumber': '3800', 'name:en': 'The Village Burgery', 'addr:street': 'Bayview Street', 'phone': '+1-604-275-6710'}"
4432,49.2484965,-123.0899419,2019-10-29T21:16:32.000-07:00,fast_food,Subway,"{'brand:wikidata': 'Q244457', 'addr:housenumber': '4108', 'brand:wikipedia': 'en:Subway (restaurant)', 'cuisine': 'sandwich', 'addr:street': 'Fraser Street', 'takeaway': 'yes', 'brand': 'Subway', 'addr:city': 'Vancouver'}"
4443,49.2133637,-122.9197114,2019-09-13T13:57:04.000-07:00,fast_food,Papa John's,"{'brand:wikidata': 'Q2759586', 'addr:housenumber': '512A', 'brand:wikipedia': ""en:Papa John's Pizza"", 'cuisine': 'pizza', 'addr:street': 'Sixth Avenue', 'takeaway': 'yes', 'brand': ""Papa John's"", 'addr:city': 'New Westminster'}"
4467,49.2889429,-123.1390161,2019-08-29T18:01:23.000-07:00,fast_food,Burger King,"{'brand:wikidata': 'Q177054', 'brand:wikipedia': 'en:Burger King', 'cuisine': 'burger', 'name:en': 'Burger King', 'takeaway': 'yes', 'brand': 'Burger King'}"
4478,49.2060719,-123.125509,2019-08-11T00:05:00.000-07:00,fast_food,McDonald's,"{'brand:wikidata': 'Q38076', 'cuisine': 'burger', 'takeaway': 'yes', 'brand': ""McDonald's"", 'brand:wikipedia': ""en:McDonald's""}"
4479,49.1589744,-122.7809639,2018-02-10T16:17:44.000-08:00,fast_food,D-Plus Pizza,"{'cuisine': 'pizza', 'addr:housenumber': '15933-103', 'name:en': 'D-Plus Pizza', 'phone': '+1-604-593-5555'}"
4514,49.2510662,-123.0786825,2020-03-20T18:27:53.000-07:00,fast_food,Domino's,"{'brand:wikidata': 'Q839466', 'addr:housenumber': '1254', 'brand:wikipedia': ""en:Domino's Pizza"", 'cuisine': 'pizza', 'addr:street': 'Kingsway', 'takeaway': 'yes', 'brand': ""Domino's"", 'addr:city': 'Vancouver'}"
4524,49.1624616,-122.7905606,2020-06-20T09:22:50.000-07:00,fast_food,Subway,"{'brand:wikidata': 'Q244457', 'brand:wikipedia': 'en:Subway (restaurant)', 'cuisine': 'sandwich', 'name:en': 'Subway', 'takeaway': 'yes', 'brand': 'Subway'}"
4540,49.2896666,-122.7853435,2017-07-10T00:38:28.000-07:00,fast_food,,{}
4581,49.0478696,-122.3431735,2019-09-02T22:08:26.000-07:00,fast_food,Classic Pizza,"{'official_name': 'Canadian Classic Pizza Ltd.', 'website': 'http://www.classicpizza.ca', 'phone': '+1-604-557-9922', 'opening_hours': 'Su,PH 12:00-00:00; Fr-Sa 11:00-01:30; Mo-Th 11:00-00:30', 'cuisine': 'pizza', 'addr:unit': '102'}"
4584,49.04831,-122.3418519,2018-06-20T15:12:01.000-07:00,fast_food,Great Pizza 2 for 1,"{'opening_hours': '11:30+', 'cuisine': 'pizza;indian', 'website': 'http://www.greatpizza.ca', 'phone': '+1-604-852-0241', 'addr:unit': 'C'}"
4589,49.0489231,-122.3807319,2018-06-20T15:12:02.000-07:00,fast_food,Giddy Up Pizza -n- Curry,"{'opening_hours': 'Mo-Th 11:00-21:30; Fr 11:00-22:00; Sa 16:00-22:00; Su,PH 16:00-21:30', 'cuisine': 'pizza;indian', 'website': 'http://GiddyUpPizza.ca', 'phone': '+1-604-776-3333', 'addr:unit': '3'}"
4616,49.2473653,-122.89185,2018-12-08T01:49:21.000-08:00,fast_food,,{}
4620,49.0954257,-122.8980932,2018-12-09T02:34:48.000-08:00,fast_food,,"{'description': 'Concession stand', 'cuisine': 'hotdog;french_fries;beverages;sandwich', 'outdoor_seating': 'yes'}"
4632,49.231433,-123.0316383,2019-09-13T13:57:04.000-07:00,fast_food,Panago Pizza,"{'cuisine': 'pizza', 'addr:housenumber': '5738', 'addr:street': 'Tyne Street', 'addr:city': 'Vancouver'}"
4651,49.2789073,-123.1221767,2019-12-08T21:03:26.000-08:00,fast_food,Uncle Fatih's Pizza,"{'opening_hours:signed': 'no', 'addr:housenumber': '625', 'website': 'http://unclefatih.com', 'phone': '+1-604-563-4040', 'drive_through': 'no', 'cuisine': 'pizza', 'addr:street': 'Nelson Street', 'addr:city': 'Vancouver'}"
4654,49.280548,-123.1213662,2019-09-26T02:10:05.000-07:00,fast_food,McDonald's,"{'brand:wikidata': 'Q38076', 'internet_access': 'wlan', 'brand:wikipedia': ""en:McDonald's"", 'cuisine': 'burger', 'addr:postcode': 'V6Z 1K7', 'takeaway': 'yes', 'addr:city': 'Vancouver', 'addr:housenumber': '891', 'phone': '+1-604-718-1062', 'drive_through': 'no', 'opening_hours': '24/7', 'addr:street': 'Granville Street', 'brand': ""McDonald's""}"
4656,49.28109,-123.1190968,2019-09-02T22:08:25.000-07:00,fast_food,Five Guys,"{'brand:wikidata': 'Q1131810', 'official_name': 'Five Guys Burgers and Fries', 'addr:housenumber': '635', 'brand:wikipedia': 'en:Five Guys', 'opening_hours': 'Mo-Th,Su 11:00-22:00; Fr,Sa 11:00-00:00', 'cuisine': 'burger', 'addr:street': 'Robson Street', 'takeaway': 'yes', 'brand': 'Five Guys'}"
4662,49.2616851,-123.0700316,2019-08-02T02:24:13.000-07:00,fast_food,Subway,"{'brand:wikidata': 'Q244457', 'addr:housenumber': '2569', 'brand:wikipedia': 'en:Subway (restaurant)', 'opening_hours': 'Mo-Sa 07:00-00:00; Su 08:00-23:00', 'cuisine': 'sandwich', 'addr:street': 'Commercial Drive', 'takeaway': 'yes', 'brand': 'Subway'}"
4671,49.2831516,-123.1154178,2019-10-02T20:57:25.000-07:00,fast_food,A&W,"{'opening_hours': '24/7', 'cuisine': 'burger', 'internet_access': 'wlan', 'addr:city': 'Vancouver'}"
4681,49.2792876,-123.1226649,2020-03-08T23:06:19.000-07:00,fast_food,Hungry Guys,"{'addr:province': 'BC', 'addr:housenumber': '988', 'drive_through': 'no', 'opening_hours': 'Mo-Su 11:00-20:30', 'addr:street': 'Granville Street', 'addr:city': 'Vancouver'}"
4695,49.2725937,-123.1484867,2015-09-14T00:29:27.000-07:00,fast_food,Flying Wedge Pizza,"{'addr:housenumber': '1935', 'addr:street': 'Cornwall Avenue'}"
4696,49.2725847,-123.1487051,2019-08-29T18:37:06.000-07:00,fast_food,Planet Veg,"{'diet:vegetarian': 'yes', 'addr:housenumber': '1941', 'website': 'http://planetvegrestaurant.com', 'internet_access': 'wlan', 'phone': '+1-604-734-1001', 'opening_hours': 'Mo-Su 11:00-20:00', 'cuisine': 'indian', 'addr:street': 'Cornwall Avenue', 'diet:vegan': 'yes'}"
4699,49.2725886,-123.1483117,2015-09-14T00:29:27.000-07:00,fast_food,Vera's Burger Shack,"{'addr:housenumber': '1925', 'addr:street': 'Cornwall Avenue'}"
4707,49.2725828,-123.1485578,2015-09-14T00:29:27.000-07:00,fast_food,Al Basha,"{'addr:housenumber': '1937', 'addr:street': 'Cornwall Avenue'}"
4716,49.2727038,-123.1472939,2015-09-13T01:46:57.000-07:00,fast_food,Siegel's Bagels,"{'addr:housenumber': '1883', 'addr:street': 'Cornwall Avenue'}"
4733,49.2837791,-122.8096883,2013-04-30T02:32:38.000-07:00,fast_food,Sultan's Delicious Donair,{'cuisine': 'kebab'}
4734,49.2781282,-122.8112429,2019-09-23T20:17:12.000-07:00,fast_food,Burger King,"{'brand:wikidata': 'Q177054', 'cuisine': 'burger', 'takeaway': 'yes', 'brand': 'Burger King', 'brand:wikipedia': 'en:Burger King'}"
4735,49.2782009,-122.8115542,2019-09-23T20:17:12.000-07:00,fast_food,Subway,"{'brand:wikidata': 'Q244457', 'cuisine': 'sandwich', 'takeaway': 'yes', 'brand': 'Subway', 'brand:wikipedia': 'en:Subway (restaurant)'}"
4749,49.2723148,-123.1551667,2019-06-08T22:17:14.000-07:00,fast_food,Nimby Burger,"{'opening_hours': 'Mo-Th 11:00-01:00+; Fr 11:00-02:00+; Sa 10:00-02:00+; Su 10:00-01:00+', 'cuisine': 'burger'}"
4754,49.2352507,-123.1557393,2019-09-24T19:58:50.000-07:00,fast_food,Subway,"{'brand:wikidata': 'Q244457', 'addr:housenumber': '5623', 'brand:wikipedia': 'en:Subway (restaurant)', 'cuisine': 'sandwich', 'addr:street': 'West Boulevard', 'takeaway': 'yes', 'brand': 'Subway', 'addr:city': 'Vancouver'}"
4777,49.263878,-123.205001,2019-09-13T13:57:04.000-07:00,fast_food,Subway,"{'brand:wikidata': 'Q244457', 'addr:housenumber': '4367', 'brand:wikipedia': 'en:Subway (restaurant)', 'cuisine': 'sandwich', 'addr:street': 'West 10th Avenue', 'takeaway': 'yes', 'brand': 'Subway', 'addr:city': 'Vancouver'}"
4791,49.2546026,-123.0227873,2019-09-13T13:57:04.000-07:00,fast_food,Mr. Pan Pizza,"{'addr:housenumber': '3718', 'addr:street': 'Canada Way', 'addr:city': 'Burnaby'}"
4800,49.2676308,-123.0035092,2019-09-13T13:57:04.000-07:00,fast_food,Subway,"{'brand:wikidata': 'Q244457', 'addr:housenumber': '1895', 'brand:wikipedia': 'en:Subway (restaurant)', 'cuisine': 'sandwich', 'addr:street': 'Willingdon Avenue', 'takeaway': 'yes', 'brand': 'Subway', 'addr:city': 'Burnaby'}"
4803,49.2630462,-123.1159688,2019-08-29T17:44:11.000-07:00,fast_food,Chipotle,"{'brand:wikidata': 'Q465751', 'official_name': 'Chipotle Mexican Grill', 'brand:wikipedia': 'en:Chipotle Mexican Grill', 'cuisine': 'mexican', 'addr:postcode': 'V5Z 1E9', 'takeaway': 'yes', 'addr:unit': '100', 'addr:city': 'Vancouver', 'addr:housenumber': '532', 'phone': '+1-604-829-1374', 'addr:street': 'West Broadway', 'brand': 'Chipotle'}"
4804,49.2676145,-123.0035285,2019-06-17T23:24:29.000-07:00,fast_food,Subway,"{'brand:wikidata': 'Q244457', 'addr:housenumber': '1895', 'brand:wikipedia': 'en:Subway (restaurant)', 'cuisine': 'sandwich', 'takeaway': 'yes', 'brand': 'Subway'}"
4837,49.2608512,-123.1161648,2019-08-29T17:44:11.000-07:00,fast_food,A&W,"{'brand:wikidata': 'Q2818848', 'brand:wikipedia': 'en:A&W (Canada)', 'drive_through': 'no', 'cuisine': 'burger', 'takeaway': 'yes', 'brand': 'A&W'}"
4852,49.1124073,-122.7307639,2019-04-23T13:50:47.000-07:00,fast_food,Foodies,"{'level': '1', 'indoor': 'yes'}"
4866,49.168659,-122.5811854,2019-10-27T22:06:57.000-07:00,fast_food,,"{'cuisine': 'sandwich', 'level': '0', 'takeaway': 'yes', 'operator': 'Subway'}"
4905,49.2806424,-123.1312774,2017-05-13T21:18:00.000-07:00,fast_food,Fit Camp Foods,"{'opening_hours': 'Mo-Th 10:00-19:00; Fr 10:00-18:00; Su 12:00-18:00', 'addr:housenumber': '1107', 'name:en': 'Fit Camp Foods', 'addr:street': 'Davie Street'}"
4934,49.2393218,-122.9635447,2020-02-04T05:52:09.000-08:00,fast_food,Subway,"{'brand:wikidata': 'Q244457', 'addr:housenumber': '5093', 'website': 'http://www.subway.com/', 'phone': '+1-604-540-6449', 'brand:wikipedia': 'en:Subway (restaurant)', 'opening_hours': 'Mo-Fr 07:00-22:00; Sa, Su 08:00-22:00', 'cuisine': 'sandwich', 'addr:street': 'Canada Way', 'takeaway': 'yes', 'brand': 'Subway', 'addr:city': 'Burnaby'}"
4943,49.0905017,-123.0803528,2019-06-23T20:26:23.000-07:00,fast_food,Freshslice Pizza,"{'cuisine': 'pizza', 'city': 'Delta', 'drive_through': 'no'}"
4964,49.0340836,-122.8009456,2019-09-13T13:57:05.000-07:00,fast_food,Fatburger,"{'cuisine': 'burger', 'addr:housenumber': '1750', 'addr:street': '152 Street', 'addr:unit': '101', 'addr:city': 'Surrey'}"
4970,49.0396209,-122.8015846,2019-09-13T13:57:05.000-07:00,fast_food,Dairy Queen,"{'brand:wikidata': 'Q1141226', 'addr:housenumber': '2071', 'brand:wikipedia': 'en:Dairy Queen', 'cuisine': 'ice_cream', 'addr:street': '152 Street', 'brand': 'Dairy Queen', 'addr:city': 'Surrey'}"
4972,49.0450983,-122.8008017,2019-09-13T13:57:05.000-07:00,fast_food,Pizza Pizza,"{'brand:wikidata': 'Q1194143', 'addr:housenumber': '2370', 'brand:wikipedia': 'en:Pizza Pizza', 'cuisine': 'pizza', 'addr:street': '152 Street', 'brand': 'Pizza Pizza', 'addr:city': 'Surrey'}"
4974,49.048996,-122.7967134,2019-09-13T13:57:05.000-07:00,fast_food,Newton Pizza,"{'cuisine': 'pizza', 'addr:housenumber': '2570', 'addr:street': 'King George Boulevard', 'addr:city': 'Surrey'}"
4987,49.0452753,-122.7772226,2019-09-13T13:57:05.000-07:00,fast_food,Fatburger,"{'addr:housenumber': '16070', 'addr:street': '24 Avenue', 'addr:unit': '115', 'addr:city': 'Surrey'}"
4996,49.0431711,-122.7802231,2019-09-13T13:57:05.000-07:00,fast_food,Subway,"{'brand:wikidata': 'Q244457', 'addr:housenumber': '2285', 'brand:wikipedia': 'en:Subway (restaurant)', 'cuisine': 'sandwich', 'addr:street': '160 Street', 'takeaway': 'yes', 'brand': 'Subway', 'addr:city': 'Surrey'}"
4997,49.0430859,-122.7797305,2019-09-13T13:57:05.000-07:00,fast_food,Papa John's,"{'brand:wikidata': 'Q2759586', 'addr:housenumber': '2245', 'brand:wikipedia': ""en:Papa John's Pizza"", 'cuisine': 'pizza', 'addr:street': '160 Street', 'takeaway': 'yes', 'brand': ""Papa John's"", 'addr:city': 'Surrey'}"
5044,49.1374505,-122.8907988,2019-09-13T13:57:02.000-07:00,fast_food,Subway,"{'brand:wikidata': 'Q244457', 'addr:housenumber': '7351', 'brand:wikipedia': 'en:Subway (restaurant)', 'cuisine': 'sandwich', 'addr:street': 'Scott Road', 'takeaway': 'yes', 'brand': 'Subway', 'addr:city': 'Delta'}"
5100,49.2807616,-123.1248877,2018-10-26T20:30:27.000-07:00,fast_food,Sushi Maki,"{'addr:housenumber': '989', 'phone': '+1-604-689-0111', 'opening_hours': 'Mo-Sa 11:00-22:00', 'cuisine': 'sushi', 'addr:street': 'Hornby Street', 'takeaway': 'yes', 'addr:city': 'Vancouver'}"
5101,49.3011514,-122.9561982,2015-09-05T23:49:40.000-07:00,fast_food,Wally's Burger,{'cuisine': 'burger'}
5114,49.048462,-122.3389052,2019-09-25T14:40:14.000-07:00,fast_food,Burger King Drive-Through,"{'opening_hours': '08:00-22:30', 'cuisine': 'burger', 'website': 'https://burgerking.ca/locations?field_geofield_distance[origin][lat]=49.054587&field_geofield_distance[origin][lon]=-122.32802600000002', 'takeaway': 'only', 'drive_through': 'yes'}"
5119,49.0308389,-122.2927275,2018-02-09T04:59:51.000-08:00,fast_food,Sushi Box,"{'alt_name': 'MK Sushi', 'website': 'http://mobile.yp.ca/bus/British-Columbia/Abbotsford/MK-Sushi/101032738.html', 'phone': '+1-604-744-5511', 'addr:unit': '110'}"
5142,49.205019,-122.9098717,2018-10-26T20:30:04.000-07:00,fast_food,Royal Hut Pizza,"{'delivery': 'yes', 'cuisine': 'pizza', 'addr:housenumber': '81', 'phone': '+1-604-520-3232'}"
5161,49.2639753,-123.1713499,2019-06-08T06:31:22.000-07:00,fast_food,Quiznos,"{'brand:wikidata': 'Q1936229', 'website': 'http://www.quiznos.ca/', 'brand:wikipedia': 'en:Quiznos', 'cuisine': 'sandwich', 'takeaway': 'yes', 'brand': 'Quiznos'}"
5165,49.2639335,-123.1678232,2018-06-12T02:26:08.000-07:00,fast_food,Uncle Faith's Pizza,"{'addr:housenumber': '2778', 'opening_hours': 'Fr-Sa 11:30-03:00; Mo-Th 11:00-01:00; Su 11:00-00:00', 'cuisine': 'pizza', 'name:en': 'Uncle Fatih’s Pizza', 'addr:street': 'West Broadway', 'addr:city': 'Vancouver'}"
5171,49.2632325,-123.1364612,2017-10-28T02:09:14.000-07:00,fast_food,Bella Pizza,"{'cuisine': 'pizza', 'addr:housenumber': '1414', 'addr:street': 'West Broadway'}"
5176,49.2632444,-123.1255405,2019-08-29T18:18:41.000-07:00,fast_food,Subway,"{'brand:wikidata': 'Q244457', 'website': 'http://www.subway.com/', 'brand:wikipedia': 'en:Subway (restaurant)', 'cuisine': 'sandwich', 'takeaway': 'yes', 'brand': 'Subway'}"
5181,49.2628323,-123.1032243,2020-06-15T16:20:22.000-07:00,fast_food,Subway,"{'brand:wikidata': 'Q244457', 'addr:housenumber': '98', 'website': 'http://www.subway.com/', 'brand:wikipedia': 'en:Subway (restaurant)', 'cuisine': 'sandwich', 'addr:street': 'East Broadway', 'takeaway': 'yes', 'brand': 'Subway'}"
5184,49.2625523,-123.0693702,2019-07-31T07:15:43.000-07:00,fast_food,A&W,"{'opening_hours': 'Mo-Fr 06:00-00:00; Sa 07:00-22:00; Su 07:00-23:00', 'cuisine': 'burger', 'addr:housenumber': '1715', 'addr:street': 'East Broadway'}"
5185,49.2628756,-123.0695249,2019-07-31T07:15:43.000-07:00,fast_food,Booster Juice,"{'brand:wikidata': 'Q4943796', 'brand:wikipedia': 'en:Booster Juice', 'opening_hours': 'Mo-Fr 08:00-21:00; Sa-Su 10:00-21:00', 'cuisine': 'juice', 'takeaway': 'yes', 'brand': 'Booster Juice'}"
5187,49.2627967,-123.0693624,2019-07-31T07:15:43.000-07:00,fast_food,Megabite Pizza,{'cuisine': 'pizza'}
5189,49.238319,-123.0323183,2017-01-29T18:16:58.000-08:00,fast_food,Super Great Pizza,"{'cuisine': 'pizza', 'addr:housenumber': '3388', 'addr:street': 'Vanness Avenue'}"
5231,49.2266714,-123.0905213,2019-11-07T19:56:30.000-08:00,fast_food,Freshslice Pizza,"{'brand:wikidata': 'Q5503082', 'addr:housenumber': '6374', 'brand:wikipedia': 'en:Freshslice Pizza', 'drive_through': 'no', 'opening_hours': 'Mo-Su 10:00-24:00', 'cuisine': 'pizza', 'outdoor_seating': 'no', 'addr:street': 'Fraser Street', 'takeaway': 'yes', 'brand': 'Freshslice Pizza'}"
5252,49.1767688,-122.6735666,2016-06-13T00:58:08.000-07:00,fast_food,A&W,{'cuisine': 'chicken;burger'}
5254,49.2110929,-123.1407058,2019-05-29T17:48:57.000-07:00,fast_food,Subway,"{'brand:wikidata': 'Q244457', 'cuisine': 'sandwich', 'takeaway': 'yes', 'brand': 'Subway', 'brand:wikipedia': 'en:Subway (restaurant)'}"
5268,49.2807931,-123.1191954,2020-03-08T23:06:19.000-07:00,fast_food,Red Burrito,"{'addr:province': 'BC', 'addr:housenumber': '606', 'phone': '+1-604-676-0097', 'cuisine': 'mexican', 'addr:street': 'Robson Street', 'addr:postcode': 'V6B 2B9', 'addr:city': 'Vancouver'}"
5283,49.2833711,-123.1145504,2015-09-23T03:36:55.000-07:00,fast_food,Peqish,"{'opening_hours': 'Mo-Fr 08:00-16:00', 'addr:housenumber': '552', 'addr:street': 'Seymour Street'}"
5284,49.2845542,-123.1133241,2015-09-23T03:36:49.000-07:00,fast_food,Kita no Donburi,"{'addr:housenumber': '423', 'addr:street': 'Seymour Street'}"
5286,49.2834954,-123.1149019,2015-09-23T03:36:54.000-07:00,fast_food,Pizza Vancouver,"{'addr:housenumber': '547', 'addr:street': 'Seymour Street'}"
5293,49.282623,-123.109344,2020-03-16T00:59:16.000-07:00,fast_food,Meat & Bread,"{'addr:province': 'BC', 'opening_hours': 'Mo-Sa 11:00-17:00', 'addr:housenumber': '370', 'addr:street': 'Cambie Street', 'addr:city': 'Vancouver'}"
5294,49.2827131,-123.1093153,2018-05-08T03:48:34.000-07:00,fast_food,Fresh Bowl,"{'diet:vegetarian': 'yes', 'drive_through': 'no', 'cuisine': 'noodle;rice', 'addr:street': 'Cambie Street', 'diet:vegan': 'yes', 'takeaway': 'yes'}"
5333,49.2789629,-122.9155195,2019-05-03T23:33:22.000-07:00,fast_food,Smoke's Poutinerie,"{'opening_hours': 'Mo-Th 11:00-19:00; Fr 11:00-16:00', 'delivery': 'no', 'cuisine': 'canadian,_poutine', 'takeaway': 'only', 'drive_through': 'no'}"
5460,49.0365027,-122.2908016,2018-06-20T15:12:36.000-07:00,fast_food,Mary Brown's Famous Chicken & Taters!,"{'addr:housenumber': '1878', 'website': 'https://marybrowns.com', 'phone': '+1-604-776-0882', 'opening_hours': 'Mo-Sa 11:00-21:00; Su 12:00-20:00', 'cuisine': 'chicken', 'addr:street': 'McCallum Road', 'addr:postcode': 'V2S 0H9', 'addr:unit': '120', 'addr:city': 'Abbotsford'}"
5463,49.0365043,-122.2907179,2019-09-13T13:57:00.000-07:00,fast_food,freshii,"{'addr:housenumber': '1878', 'website': 'https://www.freshii.com', 'cuisine': 'salad', 'addr:street': 'McCallum Road', 'addr:postcode': 'V2S 0H9', 'addr:unit': '125', 'addr:city': 'Abbotsford'}"
5469,49.2805051,-122.9777976,2017-04-22T03:47:17.000-07:00,fast_food,Zeta Cafe,"{'opening_hours': 'Su-Th 13:00-22:00; Fr-Sa 13:00-00:00', 'addr:housenumber': '5933', 'name:en': 'Zeta Cafe', 'addr:street': 'Hastings Street'}"
5470,49.2812021,-122.9998854,2019-04-13T20:23:51.000-07:00,fast_food,A&W,"{'brand:wikidata': 'Q2818848', 'cuisine': 'burger', 'name:en': 'A & W', 'brand': 'A&W', 'brand:wikipedia': 'en:A&W (Canada)'}"
5471,49.2813429,-123.0229786,2017-04-22T07:23:13.000-07:00,fast_food,Hiro Sushi,"{'cuisine': 'japanese;sushi', 'name:en': 'Hiro Sushi'}"
5550,49.133034,-123.0934313,2017-12-17T07:35:11.000-08:00,fast_food,The Chopped Leaf,"{'opening_hours': 'Mo-Fr 09:00-21:00; Su 11:00-19:00; Sa 11:00-20:00', 'addr:housenumber': '11700', 'addr:street': 'Steveston Highway', 'addr:unit': '110'}"
5553,49.1486894,-123.1817215,2017-06-16T00:21:46.000-07:00,fast_food,Freshii,{}
5555,49.1971817,-123.1755871,2018-10-26T20:30:52.000-07:00,fast_food,Bahn Shop,"{'phone': '+1-604-278-2755', 'cuisine': 'asian'}"
5565,49.1838653,-123.0929638,2019-12-29T14:19:19.000-08:00,fast_food,Domino's,"{'brand:wikidata': 'Q839466', 'cuisine': 'pizza', 'takeaway': 'yes', 'brand': ""Domino's"", 'brand:wikipedia': ""en:Domino's Pizza""}"
5569,49.1829116,-123.0921256,2015-10-09T06:21:44.000-07:00,fast_food,Panago Pizza,{'cuisine': 'pizza'}
5572,49.1838703,-123.0933981,2019-12-29T14:19:19.000-08:00,fast_food,Subway,"{'brand:wikidata': 'Q244457', 'cuisine': 'sandwich', 'takeaway': 'yes', 'brand': 'Subway', 'brand:wikipedia': 'en:Subway (restaurant)'}"
5611,49.1958534,-123.1769814,2017-10-02T17:17:14.000-07:00,fast_food,Freshii,{}
5612,49.195937,-123.1770558,2017-10-02T17:17:14.000-07:00,fast_food,Pajo’s,{}
5623,49.1551644,-123.1238125,2019-09-13T13:57:03.000-07:00,fast_food,Subway,"{'cuisine': 'sandwich', 'addr:housenumber': '9100', 'addr:street': 'Blundell Road', 'addr:city': 'Richmond'}"
5627,49.1544601,-123.1247497,2019-09-13T13:57:03.000-07:00,fast_food,Little Caesars,"{'addr:housenumber': '195-9040', 'addr:street': 'Blundell Road', 'addr:city': 'Richmond'}"
5658,49.2896711,-123.1384396,2017-11-26T00:17:00.000-08:00,fast_food,Yeh!,"{'addr:housenumber': '985', 'addr:street': 'Denman Street'}"
5659,49.2896102,-123.1385336,2017-11-26T00:17:01.000-08:00,fast_food,A&W,"{'addr:housenumber': '991', 'addr:street': 'Denman Street'}"
5661,49.289715,-123.1383784,2020-04-30T16:40:54.000-07:00,fast_food,Peaked Pies,"{'addr:province': 'BC', 'addr:housenumber': '975', 'addr:country': 'CA', 'addr:street': 'Denman Street', 'addr:postcode': 'V6G 2M3', 'addr:city': 'Vancouver'}"
5664,49.2897561,-123.1383258,2019-08-29T18:02:26.000-07:00,fast_food,Panago,"{'brand:wikidata': 'Q17111672', 'addr:housenumber': '969', 'brand:wikipedia': 'en:Panago', 'cuisine': 'pizza', 'addr:street': 'Denman Street', 'takeaway': 'yes', 'brand': 'Panago'}"
5679,49.1774976,-123.1201449,2020-04-17T21:26:32.000-07:00,fast_food,McDonald's,"{'brand:wikidata': 'Q38076', 'addr:housenumber': '9251', 'brand:wikipedia': ""en:McDonald's"", 'cuisine': 'burger', 'addr:street': 'Alderbridge Way', 'takeaway': 'yes', 'brand': ""McDonald's"", 'addr:city': 'Richmond'}"
5693,49.1038027,-122.7250223,2019-09-23T20:11:19.000-07:00,fast_food,McDonald's,"{'brand:wikidata': 'Q38076', 'addr:housenumber': '17960', 'internet_access': 'wlan', 'brand:wikipedia': ""en:McDonald's"", 'cuisine': 'burger', 'addr:street': '56 Avenue', 'takeaway': 'yes', 'brand': ""McDonald's""}"
5705,49.1037705,-122.7286433,2017-02-13T22:25:13.000-08:00,fast_food,A&W,"{'cuisine': 'burger', 'addr:housenumber': '17830', 'addr:street': '56 Avenue'}"
5751,49.1191003,-122.7315965,2019-10-29T03:23:55.000-07:00,fast_food,Subway,"{'brand:wikidata': 'Q244457', 'brand:wikipedia': 'en:Subway (restaurant)', 'drive_through': 'no', 'cuisine': 'sandwich', 'takeaway': 'yes', 'brand': 'Subway', 'addr:city': 'Surrey'}"
5763,49.1919709,-122.8241091,2019-09-10T18:50:44.000-07:00,fast_food,A&D BBQ,"{'description': 'Pork · Chicken · Duck', 'cuisine': 'barbecue', 'level': '0'}"
5795,49.2782532,-123.1218162,2017-05-10T03:17:27.000-07:00,fast_food,24 Train Express Noodle House,"{'opening_hours': 'Mo-Su 10:00-23:00', 'addr:housenumber': '550', 'addr:street': 'Nelson Street'}"
5798,49.2820553,-123.1335652,2017-08-16T22:11:55.000-07:00,fast_food,La Belle Patate,"{'opening_hours': 'Mo-Th 11:00-23:00, Fr,Sa 11:00-03:00, Su 11:00-21:00', 'addr:housenumber': '1215', 'addr:street': 'Davie Street'}"
5801,49.279559,-123.1078428,2018-10-26T20:30:32.000-07:00,fast_food,Sushi Den,"{'addr:housenumber': '609', 'internet_access': 'wlan', 'phone': '+1-604-687-4422', 'opening_hours': 'Mo-Fr 11:00-22:00; Sa-Su 12:00-22:00', 'cuisine': 'sushi', 'addr:street': 'Abbott Street', 'addr:postcode': 'V6B 0J4', 'takeaway': 'yes', 'addr:city': 'Vancouver'}"
5802,49.2819445,-123.1076316,2018-10-26T20:30:32.000-07:00,fast_food,Noodle Box,"{'diet:vegetarian': 'yes', 'addr:housenumber': '108', 'website': 'http://www.noodlebox.ca', 'phone': '+1-604-559-1775', 'opening_hours': 'Mo-Fr 11:30-21:00; Sa-Su 12:00-20:00', 'cuisine': 'noodles;asian', 'addr:street': 'West Hastings Street', 'addr:postcode': 'V6B 0G9', 'takeaway': 'yes', 'email': 'gastown@noodlebox.net'}"
5803,49.2816397,-123.1075252,2018-05-08T04:13:41.000-07:00,fast_food,Tacomio,"{'addr:housenumber': '435', 'website': 'http://www.tacomio.ca', 'opening_hours': 'Mo-Su 11:00-21:00', 'cuisine': 'mexican', 'addr:street': 'Abbott Street', 'takeaway': 'yes'}"
5839,49.2838332,-123.113312,2016-07-15T18:35:38.000-07:00,fast_food,Kyzock - House of Sushi Bowl,"{'cuisine': 'japanese;sushi', 'addr:housenumber': '559', 'addr:street': 'West Pender Street'}"
5841,49.2839646,-123.1135104,2019-09-13T13:56:58.000-07:00,fast_food,Me Crêpes,"{'opening_hours': 'Mo-Fr 08:30-14:30; Sa-Su 10:00-15:00', 'addr:housenumber': '589', 'addr:street': 'West Pender Street', 'addr:city': 'Vancouver'}"
5842,49.2840103,-123.1135799,2015-10-17T02:29:04.000-07:00,fast_food,2001 Flavors,"{'addr:housenumber': '595', 'addr:street': 'West Pender Street'}"
5849,49.2836356,-123.1130258,2017-08-03T01:26:08.000-07:00,fast_food,Koala Kebabs,"{'opening_hours': 'Mo-Fr 11:30-18:00', 'addr:housenumber': '519', 'addr:street': 'West Pender Street'}"
5850,49.2837054,-123.1131194,2018-10-26T20:30:32.000-07:00,fast_food,Cham Mani,"{'opening_hours': 'Mo-Fr 10:30-18:00', 'addr:housenumber': '529', 'addr:street': 'West Pender Street', 'phone': '+1-604-681-4422', 'addr:city': 'Vancouver'}"
5852,49.2837386,-123.1131665,2015-10-17T02:28:59.000-07:00,fast_food,Sushi Spin Roll,"{'addr:housenumber': '535', 'addr:street': 'West Pender Street'}"
5853,49.2838178,-123.1132808,2015-10-17T02:29:00.000-07:00,fast_food,Fresh Slice,{'addr:street': 'West Pender Street'}
5869,49.0543514,-122.3585561,2018-04-01T04:01:16.000-07:00,fast_food,Tops Pizza,"{'website': 'http://tops-pizza.com', 'phone': '+1-604-864-2225', 'level': '0', 'opening_hours': '11:00-22:00', 'cuisine': 'pizza', 'addr:unit': '10'}"
5875,49.0545294,-122.3589787,2018-02-09T04:59:56.000-08:00,fast_food,Punjab Sweet House,"{'website': 'http://mobile.yp.ca/bus/British-Columbia/Abbotsford/Punjab-Sweet-House/3739079.html', 'shop': 'bakery', 'phone': '+1-604-504-1761', 'level': '1', 'addr:unit': '8A'}"
5914,49.1867038,-123.1241844,2018-02-09T05:00:15.000-08:00,fast_food,Prata-Man Singapore Cuisine,"{'opening_hours': 'Tu-Su 11:00-21:00', 'name:en': 'Prata-Man Singapore Cuisine', 'phone': '+1-604-278-1348'}"
5916,49.1546847,-123.1257846,2019-09-02T17:44:42.000-07:00,fast_food,Kiriri Japanese Sushi,"{'addr:housenumber': '190-8780', 'phone': '+1-778-297-4330', 'opening_hours': 'Tu-Fr 12:00-14:30,17:30-22:00; Sa-Su 17:30-22:00', 'cuisine': 'japanese', 'name:en': 'Kiriri Japanese Sushi', 'addr:street': 'Blundell Road', 'addr:postcode': 'V6Y 3Y8'}"
